var river_datas = {
	"type": "FeatureCollection",
	"name": "rivers20191022",
	"crs": {
		"type": "name",
		"properties": {
			"name": "urn:ogc:def:crs:EPSG::3824"
		}
	},
	"features": [
		{
			"type": "Feature",
			"properties": {
				"name": "一坑",
				"wikiID": null,
				"alt": null,
				"city": "宜蘭縣",
				"midpointX": "121.571",
				"midpointY": "24.6197",
				"field_7": null,
				"Y+X": "24.6197,121.571"
			},
			"geometry": {
				"type": "Point",
				"coordinates": [
					121.571,
					24.6197
				]
			}
		},
		{
			"type": "Feature",
			"properties": {
				"name": "一溪",
				"wikiID": null,
				"alt": null,
				"city": "高雄市",
				"midpointX": "120.723",
				"midpointY": "23.2814",
				"field_7": null,
				"Y+X": "23.2814,120.723"
			},
			"geometry": {
				"type": "Point",
				"coordinates": [
					120.723,
					23.2814
				]
			}
		},
		{
			"type": "Feature",
			"properties": {
				"name": "一號溪",
				"wikiID": null,
				"alt": null,
				"city": "南投縣",
				"midpointX": "120.871",
				"midpointY": "23.5759",
				"field_7": null,
				"Y+X": "23.5759,120.871"
			},
			"geometry": {
				"type": "Point",
				"coordinates": [
					120.871,
					23.5759
				]
			}
		},
		{
			"type": "Feature",
			"properties": {
				"name": "丁子漏溪",
				"wikiID": null,
				"alt": null,
				"city": "花蓮縣",
				"midpointX": "121.481",
				"midpointY": "23.5995",
				"field_7": null,
				"Y+X": "23.5995,121.481"
			},
			"geometry": {
				"type": "Point",
				"coordinates": [
					121.481,
					23.5995
				]
			}
		},
		{
			"type": "Feature",
			"properties": {
				"name": "丁子蘭坑",
				"wikiID": null,
				"alt": null,
				"city": "新北市",
				"midpointX": "121.858",
				"midpointY": "24.9923",
				"field_7": null,
				"Y+X": "24.9923,121.858"
			},
			"geometry": {
				"type": "Point",
				"coordinates": [
					121.858,
					24.9923
				]
			}
		},
		{
			"type": "Feature",
			"properties": {
				"name": "丁子蘭溪",
				"wikiID": null,
				"alt": null,
				"city": "新北市",
				"midpointX": "121.875",
				"midpointY": "25.0228",
				"field_7": null,
				"Y+X": "25.0228,121.875"
			},
			"geometry": {
				"type": "Point",
				"coordinates": [
					121.875,
					25.0228
				]
			}
		},
		{
			"type": "Feature",
			"properties": {
				"name": "七公圳",
				"wikiID": null,
				"alt": null,
				"city": "臺中市",
				"midpointX": "120.755",
				"midpointY": "24.3247",
				"field_7": null,
				"Y+X": "24.3247,120.755"
			},
			"geometry": {
				"type": "Point",
				"coordinates": [
					120.755,
					24.3247
				]
			}
		},
		{
			"type": "Feature",
			"properties": {
				"name": "七分坑",
				"wikiID": null,
				"alt": null,
				"city": "臺中市",
				"midpointX": "120.778",
				"midpointY": "24.2308",
				"field_7": null,
				"Y+X": "24.2308,120.778"
			},
			"geometry": {
				"type": "Point",
				"coordinates": [
					120.778,
					24.2308
				]
			}
		},
		{
			"type": "Feature",
			"properties": {
				"name": "七打高溪",
				"wikiID": null,
				"alt": null,
				"city": "屏東縣",
				"midpointX": "120.68",
				"midpointY": "22.29",
				"field_7": null,
				"Y+X": "22.29,120.68"
			},
			"geometry": {
				"type": "Point",
				"coordinates": [
					120.68,
					22.29
				]
			}
		},
		{
			"type": "Feature",
			"properties": {
				"name": "七里溪",
				"wikiID": "Q10864811",
				"alt": "十里溪",
				"city": "屏東縣",
				"midpointX": "120.661",
				"midpointY": "22.2913",
				"field_7": null,
				"Y+X": "22.2913,120.661"
			},
			"geometry": {
				"type": "Point",
				"coordinates": [
					120.661,
					22.2913
				]
			}
		},
		{
			"type": "Feature",
			"properties": {
				"name": "七里溪",
				"wikiID": null,
				"alt": null,
				"city": "台東縣",
				"midpointX": "121.275544",
				"midpointY": "22.934797",
				"field_7": null,
				"Y+X": "22.934797,121.275544"
			},
			"geometry": {
				"type": "Point",
				"coordinates": [
					121.275544,
					22.934797
				]
			}
		},
		{
			"type": "Feature",
			"properties": {
				"name": "七佳溪",
				"wikiID": null,
				"alt": null,
				"city": "屏東縣",
				"midpointX": "120.736",
				"midpointY": "22.4876",
				"field_7": null,
				"Y+X": "22.4876,120.736"
			},
			"geometry": {
				"type": "Point",
				"coordinates": [
					120.736,
					22.4876
				]
			}
		},
		{
			"type": "Feature",
			"properties": {
				"name": "七股坑",
				"wikiID": null,
				"alt": null,
				"city": "苗栗縣",
				"midpointX": "120.844",
				"midpointY": "24.3235",
				"field_7": null,
				"Y+X": "24.3235,120.844"
			},
			"geometry": {
				"type": "Point",
				"coordinates": [
					120.844,
					24.3235
				]
			}
		},
		{
			"type": "Feature",
			"properties": {
				"name": "七股溪",
				"wikiID": "Q35331776",
				"alt": "劉厝排水",
				"city": "臺南市",
				"midpointX": "120.151",
				"midpointY": "23.1346",
				"field_7": null,
				"Y+X": "23.1346,120.151"
			},
			"geometry": {
				"type": "Point",
				"coordinates": [
					120.151,
					23.1346
				]
			}
		},
		{
			"type": "Feature",
			"properties": {
				"name": "七星堆埤",
				"wikiID": null,
				"alt": null,
				"city": "桃園市",
				"midpointX": "121.223",
				"midpointY": "25.0425",
				"field_7": null,
				"Y+X": "25.0425,121.223"
			},
			"geometry": {
				"type": "Point",
				"coordinates": [
					121.223,
					25.0425
				]
			}
		},
		{
			"type": "Feature",
			"properties": {
				"name": "七家灣溪",
				"wikiID": "Q10864577",
				"alt": null,
				"city": "臺中市",
				"midpointX": "121.31",
				"midpointY": "24.3733",
				"field_7": null,
				"Y+X": "24.3733,121.31"
			},
			"geometry": {
				"type": "Point",
				"coordinates": [
					121.31,
					24.3733
				]
			}
		},
		{
			"type": "Feature",
			"properties": {
				"name": "七番埤",
				"wikiID": null,
				"alt": null,
				"city": "高雄市",
				"midpointX": "120.326",
				"midpointY": "22.6869",
				"field_7": null,
				"Y+X": "22.6869,120.326"
			},
			"geometry": {
				"type": "Point",
				"coordinates": [
					120.326,
					22.6869
				]
			}
		},
		{
			"type": "Feature",
			"properties": {
				"name": "九仙溪",
				"wikiID": null,
				"alt": null,
				"city": "南投縣",
				"midpointX": "121.09",
				"midpointY": "24.1522",
				"field_7": null,
				"Y+X": "24.1522,121.09"
			},
			"geometry": {
				"type": "Point",
				"coordinates": [
					121.09,
					24.1522
				]
			}
		},
		{
			"type": "Feature",
			"properties": {
				"name": "九芎坑溪",
				"wikiID": null,
				"alt": null,
				"city": "嘉義縣",
				"midpointX": "120.548",
				"midpointY": "23.5656",
				"field_7": null,
				"Y+X": "23.5656,120.548"
			},
			"geometry": {
				"type": "Point",
				"coordinates": [
					120.548,
					23.5656
				]
			}
		},
		{
			"type": "Feature",
			"properties": {
				"name": "九芎林圳",
				"wikiID": null,
				"alt": null,
				"city": "南投縣",
				"midpointX": "121.006",
				"midpointY": "23.9795",
				"field_7": null,
				"Y+X": "23.9795,121.006"
			},
			"geometry": {
				"type": "Point",
				"coordinates": [
					121.006,
					23.9795
				]
			}
		},
		{
			"type": "Feature",
			"properties": {
				"name": "九芎埤",
				"wikiID": null,
				"alt": null,
				"city": "嘉義縣",
				"midpointX": "120.37",
				"midpointY": "23.4626",
				"field_7": null,
				"Y+X": "23.4626,120.37"
			},
			"geometry": {
				"type": "Point",
				"coordinates": [
					120.37,
					23.4626
				]
			}
		},
		{
			"type": "Feature",
			"properties": {
				"name": "九芎湖",
				"wikiID": null,
				"alt": null,
				"city": "宜蘭縣",
				"midpointX": "121.608",
				"midpointY": "24.6541",
				"field_7": null,
				"Y+X": "24.6541,121.608"
			},
			"geometry": {
				"type": "Point",
				"coordinates": [
					121.608,
					24.6541
				]
			}
		},
		{
			"type": "Feature",
			"properties": {
				"name": "九岸溪",
				"wikiID": null,
				"alt": "金仔溝溪",
				"city": "花蓮縣",
				"midpointX": "121.319",
				"midpointY": "23.1957",
				"field_7": null,
				"Y+X": "23.1957,121.319"
			},
			"geometry": {
				"type": "Point",
				"coordinates": [
					121.319,
					23.1957
				]
			}
		},
		{
			"type": "Feature",
			"properties": {
				"name": "九狗溪",
				"wikiID": null,
				"alt": null,
				"city": "屏東縣",
				"midpointX": "120.483",
				"midpointY": "22.4995",
				"field_7": null,
				"Y+X": "22.4995,120.483"
			},
			"geometry": {
				"type": "Point",
				"coordinates": [
					120.483,
					22.4995
				]
			}
		},
		{
			"type": "Feature",
			"properties": {
				"name": "九崁溝",
				"wikiID": null,
				"alt": null,
				"city": "高雄市,臺南市",
				"midpointX": "120.374",
				"midpointY": "22.9271",
				"field_7": null,
				"Y+X": "22.9271,120.374"
			},
			"geometry": {
				"type": "Point",
				"coordinates": [
					120.374,
					22.9271
				]
			}
		},
		{
			"type": "Feature",
			"properties": {
				"name": "九棚溪",
				"wikiID": "Q10878902",
				"alt": null,
				"city": "屏東縣",
				"midpointX": "120.86636",
				"midpointY": "22.115066",
				"field_7": null,
				"Y+X": "22.115066,120.86636"
			},
			"geometry": {
				"type": "Point",
				"coordinates": [
					120.86636,
					22.115066
				]
			}
		},
		{
			"type": "Feature",
			"properties": {
				"name": "九湖圳",
				"wikiID": null,
				"alt": null,
				"city": "苗栗縣",
				"midpointX": "120.772",
				"midpointY": "24.4509",
				"field_7": null,
				"Y+X": "24.4509,120.772"
			},
			"geometry": {
				"type": "Point",
				"coordinates": [
					120.772,
					24.4509
				]
			}
		},
		{
			"type": "Feature",
			"properties": {
				"name": "九番埤",
				"wikiID": null,
				"alt": null,
				"city": "高雄市",
				"midpointX": "120.329",
				"midpointY": "22.6913",
				"field_7": null,
				"Y+X": "22.6913,120.329"
			},
			"geometry": {
				"type": "Point",
				"coordinates": [
					120.329,
					22.6913
				]
			}
		},
		{
			"type": "Feature",
			"properties": {
				"name": "二仁溪",
				"wikiID": "Q700777",
				"alt": "二層行溪",
				"city": "高雄市,臺南市",
				"midpointX": "120.441",
				"midpointY": "22.8772",
				"field_7": null,
				"Y+X": "22.8772,120.441"
			},
			"geometry": {
				"type": "Point",
				"coordinates": [
					120.441,
					22.8772
				]
			}
		},
		{
			"type": "Feature",
			"properties": {
				"name": "二甲溪",
				"wikiID": null,
				"alt": null,
				"city": "臺南市",
				"midpointX": "120.284",
				"midpointY": "22.9544",
				"field_7": null,
				"Y+X": "22.9544,120.284"
			},
			"geometry": {
				"type": "Point",
				"coordinates": [
					120.284,
					22.9544
				]
			}
		},
		{
			"type": "Feature",
			"properties": {
				"name": "二坑",
				"wikiID": null,
				"alt": null,
				"city": "宜蘭縣",
				"midpointX": "121.579",
				"midpointY": "24.6196",
				"field_7": null,
				"Y+X": "24.6196,121.579"
			},
			"geometry": {
				"type": "Point",
				"coordinates": [
					121.579,
					24.6196
				]
			}
		},
		{
			"type": "Feature",
			"properties": {
				"name": "二坪圳",
				"wikiID": null,
				"alt": null,
				"city": "新北市",
				"midpointX": "121.635",
				"midpointY": "25.1687",
				"field_7": null,
				"Y+X": "25.1687,121.635"
			},
			"geometry": {
				"type": "Point",
				"coordinates": [
					121.635,
					25.1687
				]
			}
		},
		{
			"type": "Feature",
			"properties": {
				"name": "二林溪",
				"wikiID": "Q32751107",
				"alt": "沙山溪",
				"city": "彰化縣",
				"midpointX": "120.352",
				"midpointY": "23.9006",
				"field_7": null,
				"Y+X": "23.9006,120.352"
			},
			"geometry": {
				"type": "Point",
				"coordinates": [
					120.352,
					23.9006
				]
			}
		},
		{
			"type": "Feature",
			"properties": {
				"name": "二重溪",
				"wikiID": null,
				"alt": null,
				"city": "高雄市",
				"midpointX": "120.455",
				"midpointY": "22.7755",
				"field_7": null,
				"Y+X": "22.7755,120.455"
			},
			"geometry": {
				"type": "Point",
				"coordinates": [
					120.455,
					22.7755
				]
			}
		},
		{
			"type": "Feature",
			"properties": {
				"name": "二重溪",
				"wikiID": null,
				"alt": null,
				"city": "屏東縣",
				"midpointX": "121.163",
				"midpointY": "24.9001",
				"field_7": null,
				"Y+X": "24.9001,121.163"
			},
			"geometry": {
				"type": "Point",
				"coordinates": [
					121.163,
					24.9001
				]
			}
		},
		{
			"type": "Feature",
			"properties": {
				"name": "二重溪",
				"wikiID": null,
				"alt": null,
				"city": "臺中市",
				"midpointX": "120.704",
				"midpointY": "24.1595",
				"field_7": null,
				"Y+X": "24.1595,120.704"
			},
			"geometry": {
				"type": "Point",
				"coordinates": [
					120.704,
					24.1595
				]
			}
		},
		{
			"type": "Feature",
			"properties": {
				"name": "二重溪",
				"wikiID": null,
				"alt": null,
				"city": "桃園市",
				"midpointX": "121.158",
				"midpointY": "24.9083",
				"field_7": null,
				"Y+X": "24.9083,121.158"
			},
			"geometry": {
				"type": "Point",
				"coordinates": [
					121.158,
					24.9083
				]
			}
		},
		{
			"type": "Feature",
			"properties": {
				"name": "二重嶺溪",
				"wikiID": null,
				"alt": null,
				"city": "臺南市",
				"midpointX": "120.402",
				"midpointY": "22.9563",
				"field_7": null,
				"Y+X": "22.9563,120.402"
			},
			"geometry": {
				"type": "Point",
				"coordinates": [
					120.402,
					22.9563
				]
			}
		},
		{
			"type": "Feature",
			"properties": {
				"name": "二埤",
				"wikiID": null,
				"alt": null,
				"city": "桃園市",
				"midpointX": "121.221",
				"midpointY": "24.8379",
				"field_7": null,
				"Y+X": "24.8379,121.221"
			},
			"geometry": {
				"type": "Point",
				"coordinates": [
					121.221,
					24.8379
				]
			}
		},
		{
			"type": "Feature",
			"properties": {
				"name": "二溪",
				"wikiID": null,
				"alt": null,
				"city": "雲林縣",
				"midpointX": "120.622",
				"midpointY": "23.6195",
				"field_7": null,
				"Y+X": "23.6195,120.622"
			},
			"geometry": {
				"type": "Point",
				"coordinates": [
					120.622,
					23.6195
				]
			}
		},
		{
			"type": "Feature",
			"properties": {
				"name": "二號溪",
				"wikiID": null,
				"alt": null,
				"city": "南投縣",
				"midpointX": "120.866",
				"midpointY": "23.5671",
				"field_7": null,
				"Y+X": "23.5671,120.866"
			},
			"geometry": {
				"type": "Point",
				"coordinates": [
					120.866,
					23.5671
				]
			}
		},
		{
			"type": "Feature",
			"properties": {
				"name": "二寮坑",
				"wikiID": null,
				"alt": null,
				"city": "苗栗縣",
				"midpointX": "120.934",
				"midpointY": "24.6003",
				"field_7": null,
				"Y+X": "24.6003,120.934"
			},
			"geometry": {
				"type": "Point",
				"coordinates": [
					120.934,
					24.6003
				]
			}
		},
		{
			"type": "Feature",
			"properties": {
				"name": "二寮溪",
				"wikiID": null,
				"alt": null,
				"city": "嘉義縣,高雄市",
				"midpointX": "120.647",
				"midpointY": "23.2577",
				"field_7": null,
				"Y+X": "23.2577,120.647"
			},
			"geometry": {
				"type": "Point",
				"coordinates": [
					120.647,
					23.2577
				]
			}
		},
		{
			"type": "Feature",
			"properties": {
				"name": "二櫃溪",
				"wikiID": null,
				"alt": null,
				"city": "臺中市",
				"midpointX": "120.863",
				"midpointY": "24.1196",
				"field_7": null,
				"Y+X": "24.1196,120.863"
			},
			"geometry": {
				"type": "Point",
				"coordinates": [
					120.863,
					24.1196
				]
			}
		},
		{
			"type": "Feature",
			"properties": {
				"name": "二鬮溪",
				"wikiID": "Q64827470",
				"alt": null,
				"city": "新北市",
				"midpointX": "121.351",
				"midpointY": "24.9038",
				"field_7": null,
				"Y+X": "24.9038,121.351"
			},
			"geometry": {
				"type": "Point",
				"coordinates": [
					121.351,
					24.9038
				]
			}
		},
		{
			"type": "Feature",
			"properties": {
				"name": "入莊圳",
				"wikiID": null,
				"alt": null,
				"city": "臺中市",
				"midpointX": "120.79",
				"midpointY": "24.3007",
				"field_7": null,
				"Y+X": "24.3007,120.79"
			},
			"geometry": {
				"type": "Point",
				"coordinates": [
					120.79,
					24.3007
				]
			}
		},
		{
			"type": "Feature",
			"properties": {
				"name": "八尺門港",
				"wikiID": null,
				"alt": null,
				"city": "基隆市",
				"midpointX": "121.773",
				"midpointY": "25.1549",
				"field_7": null,
				"Y+X": "25.1549,121.773"
			},
			"geometry": {
				"type": "Point",
				"coordinates": [
					121.773,
					25.1549
				]
			}
		},
		{
			"type": "Feature",
			"properties": {
				"name": "八甲溪",
				"wikiID": "Q10892312",
				"alt": null,
				"city": "新北市",
				"midpointX": "121.530412",
				"midpointY": "25.278265",
				"field_7": null,
				"Y+X": "25.278265,121.530412"
			},
			"geometry": {
				"type": "Point",
				"coordinates": [
					121.530412,
					25.278265
				]
			}
		},
		{
			"type": "Feature",
			"properties": {
				"name": "八角坑",
				"wikiID": null,
				"alt": null,
				"city": "苗栗縣",
				"midpointX": "120.887",
				"midpointY": "24.4872",
				"field_7": null,
				"Y+X": "24.4872,120.887"
			},
			"geometry": {
				"type": "Point",
				"coordinates": [
					120.887,
					24.4872
				]
			}
		},
		{
			"type": "Feature",
			"properties": {
				"name": "八角林河",
				"wikiID": null,
				"alt": null,
				"city": "苗栗縣",
				"midpointX": "120.895",
				"midpointY": "24.4854",
				"field_7": null,
				"Y+X": "24.4854,120.895"
			},
			"geometry": {
				"type": "Point",
				"coordinates": [
					120.895,
					24.4854
				]
			}
		},
		{
			"type": "Feature",
			"properties": {
				"name": "八角塘",
				"wikiID": null,
				"alt": null,
				"city": "桃園市",
				"midpointX": "121.193",
				"midpointY": "24.9183",
				"field_7": null,
				"Y+X": "24.9183,121.193"
			},
			"geometry": {
				"type": "Point",
				"coordinates": [
					121.193,
					24.9183
				]
			}
		},
		{
			"type": "Feature",
			"properties": {
				"name": "八里溪",
				"wikiID": "Q10892491",
				"alt": null,
				"city": "臺東縣",
				"midpointX": "121.238",
				"midpointY": "22.8868",
				"field_7": null,
				"Y+X": "22.8868,121.238"
			},
			"geometry": {
				"type": "Point",
				"coordinates": [
					121.238,
					22.8868
				]
			}
		},
		{
			"type": "Feature",
			"properties": {
				"name": "八卦力溪",
				"wikiID": null,
				"alt": null,
				"city": "苗栗縣",
				"midpointX": "120.951",
				"midpointY": "24.4966",
				"field_7": null,
				"Y+X": "24.4966,120.951"
			},
			"geometry": {
				"type": "Point",
				"coordinates": [
					120.951,
					24.4966
				]
			}
		},
		{
			"type": "Feature",
			"properties": {
				"name": "八股坑",
				"wikiID": null,
				"alt": null,
				"city": "彰化縣",
				"midpointX": "120.593",
				"midpointY": "24.0312",
				"field_7": null,
				"Y+X": "24.0312,120.593"
			},
			"geometry": {
				"type": "Point",
				"coordinates": [
					120.593,
					24.0312
				]
			}
		},
		{
			"type": "Feature",
			"properties": {
				"name": "八股埤",
				"wikiID": null,
				"alt": null,
				"city": "桃園市",
				"midpointX": "121.15",
				"midpointY": "25.0469",
				"field_7": null,
				"Y+X": "25.0469,121.15"
			},
			"geometry": {
				"type": "Point",
				"coordinates": [
					121.15,
					25.0469
				]
			}
		},
		{
			"type": "Feature",
			"properties": {
				"name": "八堵毛溪",
				"wikiID": null,
				"alt": null,
				"city": "花蓮縣",
				"midpointX": "121.583",
				"midpointY": "24.013",
				"field_7": null,
				"Y+X": "24.013,121.583"
			},
			"geometry": {
				"type": "Point",
				"coordinates": [
					121.583,
					24.013
				]
			}
		},
		{
			"type": "Feature",
			"properties": {
				"name": "八連圳",
				"wikiID": null,
				"alt": null,
				"city": "新北市",
				"midpointX": "121.506",
				"midpointY": "25.2409",
				"field_7": null,
				"Y+X": "25.2409,121.506"
			},
			"geometry": {
				"type": "Point",
				"coordinates": [
					121.506,
					25.2409
				]
			}
		},
		{
			"type": "Feature",
			"properties": {
				"name": "八連頂溪",
				"wikiID": null,
				"alt": null,
				"city": "新北市",
				"midpointX": "121.513",
				"midpointY": "25.2378",
				"field_7": null,
				"Y+X": "25.2378,121.513"
			},
			"geometry": {
				"type": "Point",
				"coordinates": [
					121.513,
					25.2378
				]
			}
		},
		{
			"type": "Feature",
			"properties": {
				"name": "八連溪",
				"wikiID": "Q10892431",
				"alt": "八蓮溪",
				"city": "新北市",
				"midpointX": "121.499",
				"midpointY": "25.2539",
				"field_7": null,
				"Y+X": "25.2539,121.499"
			},
			"geometry": {
				"type": "Point",
				"coordinates": [
					121.499,
					25.2539
				]
			}
		},
		{
			"type": "Feature",
			"properties": {
				"name": "八頂溪",
				"wikiID": null,
				"alt": null,
				"city": "南投縣",
				"midpointX": "120.938",
				"midpointY": "23.5668",
				"field_7": null,
				"Y+X": "23.5668,120.938"
			},
			"geometry": {
				"type": "Point",
				"coordinates": [
					120.938,
					23.5668
				]
			}
		},
		{
			"type": "Feature",
			"properties": {
				"name": "八掌溪",
				"wikiID": "Q699075",
				"alt": null,
				"city": "臺南市,嘉義縣,嘉義市",
				"midpointX": "120.187",
				"midpointY": "23.3012",
				"field_7": null,
				"Y+X": "23.3012,120.187"
			},
			"geometry": {
				"type": "Point",
				"coordinates": [
					120.187,
					23.3012
				]
			}
		},
		{
			"type": "Feature",
			"properties": {
				"name": "八煙溪",
				"wikiID": null,
				"alt": null,
				"city": "新北市",
				"midpointX": "121.597",
				"midpointY": "25.1942",
				"field_7": null,
				"Y+X": "25.1942,121.597"
			},
			"geometry": {
				"type": "Point",
				"coordinates": [
					121.597,
					25.1942
				]
			}
		},
		{
			"type": "Feature",
			"properties": {
				"name": "八寮灣圳",
				"wikiID": null,
				"alt": null,
				"city": "苗栗縣",
				"midpointX": "120.864",
				"midpointY": "24.4226",
				"field_7": null,
				"Y+X": "24.4226,120.864"
			},
			"geometry": {
				"type": "Point",
				"coordinates": [
					120.864,
					24.4226
				]
			}
		},
		{
			"type": "Feature",
			"properties": {
				"name": "八邊溪",
				"wikiID": null,
				"alt": null,
				"city": "臺東縣",
				"midpointX": "121.347",
				"midpointY": "23.0914",
				"field_7": null,
				"Y+X": "23.0914,121.347"
			},
			"geometry": {
				"type": "Point",
				"coordinates": [
					121.347,
					23.0914
				]
			}
		},
		{
			"type": "Feature",
			"properties": {
				"name": "八寶圳河道",
				"wikiID": null,
				"alt": null,
				"city": "臺中市",
				"midpointX": "120.778",
				"midpointY": "24.2715",
				"field_7": null,
				"Y+X": "24.2715,120.778"
			},
			"geometry": {
				"type": "Point",
				"coordinates": [
					120.778,
					24.2715
				]
			}
		},
		{
			"type": "Feature",
			"properties": {
				"name": "刀石坑",
				"wikiID": null,
				"alt": null,
				"city": "臺中市",
				"midpointX": "120.731",
				"midpointY": "24.2081",
				"field_7": null,
				"Y+X": "24.2081,120.731"
			},
			"geometry": {
				"type": "Point",
				"coordinates": [
					120.731,
					24.2081
				]
			}
		},
		{
			"type": "Feature",
			"properties": {
				"name": "力力溪",
				"wikiID": "Q21127227",
				"alt": "力里溪",
				"city": "屏東縣",
				"midpointX": "120.607",
				"midpointY": "22.4493",
				"field_7": null,
				"Y+X": "22.4493,120.607"
			},
			"geometry": {
				"type": "Point",
				"coordinates": [
					120.607,
					22.4493
				]
			}
		},
		{
			"type": "Feature",
			"properties": {
				"name": "十一分埤",
				"wikiID": null,
				"alt": null,
				"city": "桃園市",
				"midpointX": "121.237",
				"midpointY": "24.8358",
				"field_7": null,
				"Y+X": "24.8358,121.237"
			},
			"geometry": {
				"type": "Point",
				"coordinates": [
					121.237,
					24.8358
				]
			}
		},
		{
			"type": "Feature",
			"properties": {
				"name": "十九份溪",
				"wikiID": null,
				"alt": null,
				"city": "苗栗縣",
				"midpointX": "120.93",
				"midpointY": "24.509",
				"field_7": null,
				"Y+X": "24.509,120.93"
			},
			"geometry": {
				"type": "Point",
				"coordinates": [
					120.93,
					24.509
				]
			}
		},
		{
			"type": "Feature",
			"properties": {
				"name": "十二小給線",
				"wikiID": null,
				"alt": null,
				"city": "新北市",
				"midpointX": "121.488",
				"midpointY": "25.2507",
				"field_7": null,
				"Y+X": "25.2507,121.488"
			},
			"geometry": {
				"type": "Point",
				"coordinates": [
					121.488,
					25.2507
				]
			}
		},
		{
			"type": "Feature",
			"properties": {
				"name": "十二分坑",
				"wikiID": null,
				"alt": null,
				"city": "花蓮縣",
				"midpointX": "121.532",
				"midpointY": "23.784",
				"field_7": null,
				"Y+X": "23.784,121.532"
			},
			"geometry": {
				"type": "Point",
				"coordinates": [
					121.532,
					23.784
				]
			}
		},
		{
			"type": "Feature",
			"properties": {
				"name": "十二寮大埤",
				"wikiID": null,
				"alt": null,
				"city": "新竹縣",
				"midpointX": "120.994",
				"midpointY": "24.6718",
				"field_7": null,
				"Y+X": "24.6718,120.994"
			},
			"geometry": {
				"type": "Point",
				"coordinates": [
					120.994,
					24.6718
				]
			}
		},
		{
			"type": "Feature",
			"properties": {
				"name": "十八份坑溪",
				"wikiID": null,
				"alt": null,
				"city": "桃園市",
				"midpointX": "121.388",
				"midpointY": "25.043",
				"field_7": null,
				"Y+X": "25.043,121.388"
			},
			"geometry": {
				"type": "Point",
				"coordinates": [
					121.388,
					25.043
				]
			}
		},
		{
			"type": "Feature",
			"properties": {
				"name": "十八份坑溪",
				"wikiID": null,
				"alt": null,
				"city": "新北市",
				"midpointX": "121.388",
				"midpointY": "25.043",
				"field_7": null,
				"Y+X": "25.043,121.388"
			},
			"geometry": {
				"type": "Point",
				"coordinates": [
					121.388,
					25.043
				]
			}
		},
		{
			"type": "Feature",
			"properties": {
				"name": "十八重溪",
				"wikiID": null,
				"alt": null,
				"city": "南投縣",
				"midpointX": "120.957",
				"midpointY": "23.6133",
				"field_7": null,
				"Y+X": "23.6133,120.957"
			},
			"geometry": {
				"type": "Point",
				"coordinates": [
					120.957,
					23.6133
				]
			}
		},
		{
			"type": "Feature",
			"properties": {
				"name": "十八重溪",
				"wikiID": "#N/A",
				"alt": null,
				"city": "南投縣",
				"midpointX": "120.881",
				"midpointY": "23.6594",
				"field_7": null,
				"Y+X": "23.6594,120.881"
			},
			"geometry": {
				"type": "Point",
				"coordinates": [
					120.881,
					23.6594
				]
			}
		},
		{
			"type": "Feature",
			"properties": {
				"name": "十三分坑",
				"wikiID": null,
				"alt": null,
				"city": "宜蘭縣",
				"midpointX": "121.763",
				"midpointY": "24.616",
				"field_7": null,
				"Y+X": "24.616,121.763"
			},
			"geometry": {
				"type": "Point",
				"coordinates": [
					121.763,
					24.616
				]
			}
		},
		{
			"type": "Feature",
			"properties": {
				"name": "十五小給線",
				"wikiID": null,
				"alt": null,
				"city": "新北市",
				"midpointX": "121.483",
				"midpointY": "25.2538",
				"field_7": null,
				"Y+X": "25.2538,121.483"
			},
			"geometry": {
				"type": "Point",
				"coordinates": [
					121.483,
					25.2538
				]
			}
		},
		{
			"type": "Feature",
			"properties": {
				"name": "十五間溪",
				"wikiID": null,
				"alt": null,
				"city": "桃園市",
				"midpointX": "121.08",
				"midpointY": "24.9424",
				"field_7": null,
				"Y+X": "24.9424,121.08"
			},
			"geometry": {
				"type": "Point",
				"coordinates": [
					121.08,
					24.9424
				]
			}
		},
		{
			"type": "Feature",
			"properties": {
				"name": "十文溪",
				"wikiID": null,
				"alt": null,
				"city": "臺中市",
				"midpointX": "121.027",
				"midpointY": "24.1846",
				"field_7": null,
				"Y+X": "24.1846,121.027"
			},
			"geometry": {
				"type": "Point",
				"coordinates": [
					121.027,
					24.1846
				]
			}
		},
		{
			"type": "Feature",
			"properties": {
				"name": "十四小給線",
				"wikiID": null,
				"alt": null,
				"city": "新北市",
				"midpointX": "121.487",
				"midpointY": "25.2524",
				"field_7": null,
				"Y+X": "25.2524,121.487"
			},
			"geometry": {
				"type": "Point",
				"coordinates": [
					121.487,
					25.2524
				]
			}
		},
		{
			"type": "Feature",
			"properties": {
				"name": "十四坑",
				"wikiID": null,
				"alt": null,
				"city": "基隆市",
				"midpointX": "121.652",
				"midpointY": "25.1124",
				"field_7": null,
				"Y+X": "25.1124,121.652"
			},
			"geometry": {
				"type": "Point",
				"coordinates": [
					121.652,
					25.1124
				]
			}
		},
		{
			"type": "Feature",
			"properties": {
				"name": "十四寮大埤",
				"wikiID": null,
				"alt": null,
				"city": "新竹縣",
				"midpointX": "121.002",
				"midpointY": "24.6718",
				"field_7": null,
				"Y+X": "24.6718,121.002"
			},
			"geometry": {
				"type": "Point",
				"coordinates": [
					121.002,
					24.6718
				]
			}
		},
		{
			"type": "Feature",
			"properties": {
				"name": "十股坑",
				"wikiID": null,
				"alt": null,
				"city": "苗栗縣",
				"midpointX": "120.711",
				"midpointY": "24.3857",
				"field_7": null,
				"Y+X": "24.3857,120.711"
			},
			"geometry": {
				"type": "Point",
				"coordinates": [
					120.711,
					24.3857
				]
			}
		},
		{
			"type": "Feature",
			"properties": {
				"name": "十股溪",
				"wikiID": null,
				"alt": null,
				"city": "宜蘭縣",
				"midpointX": "121.771",
				"midpointY": "24.8417",
				"field_7": null,
				"Y+X": "24.8417,121.771"
			},
			"geometry": {
				"type": "Point",
				"coordinates": [
					121.771,
					24.8417
				]
			}
		},
		{
			"type": "Feature",
			"properties": {
				"name": "十區埤",
				"wikiID": null,
				"alt": null,
				"city": "新北市",
				"midpointX": "121.523",
				"midpointY": "25.2652",
				"field_7": null,
				"Y+X": "25.2652,121.523"
			},
			"geometry": {
				"type": "Point",
				"coordinates": [
					121.523,
					25.2652
				]
			}
		},
		{
			"type": "Feature",
			"properties": {
				"name": "十張犁圳",
				"wikiID": null,
				"alt": null,
				"city": "高雄市",
				"midpointX": "120.575",
				"midpointY": "23.0111",
				"field_7": null,
				"Y+X": "23.0111,120.575"
			},
			"geometry": {
				"type": "Point",
				"coordinates": [
					120.575,
					23.0111
				]
			}
		},
		{
			"type": "Feature",
			"properties": {
				"name": "十硿子溪",
				"wikiID": "#N/A",
				"alt": "石硿子溪",
				"city": "新北市",
				"midpointX": null,
				"midpointY": null,
				"field_7": null,
				"Y+X": ","
			},
			"geometry": null
		},
		{
			"type": "Feature",
			"properties": {
				"name": "三叉坑溪",
				"wikiID": null,
				"alt": null,
				"city": "新北市",
				"midpointX": "121.828",
				"midpointY": "25.0198",
				"field_7": null,
				"Y+X": "25.0198,121.828"
			},
			"geometry": {
				"type": "Point",
				"coordinates": [
					121.828,
					25.0198
				]
			}
		},
		{
			"type": "Feature",
			"properties": {
				"name": "三屯圳",
				"wikiID": null,
				"alt": null,
				"city": "新竹縣",
				"midpointX": "121.197",
				"midpointY": "24.7994",
				"field_7": null,
				"Y+X": "24.7994,121.197"
			},
			"geometry": {
				"type": "Point",
				"coordinates": [
					121.197,
					24.7994
				]
			}
		},
		{
			"type": "Feature",
			"properties": {
				"name": "三屯圳",
				"wikiID": null,
				"alt": null,
				"city": "桃園市",
				"midpointX": "121.197",
				"midpointY": "24.7994",
				"field_7": null,
				"Y+X": "24.7994,121.197"
			},
			"geometry": {
				"type": "Point",
				"coordinates": [
					121.197,
					24.7994
				]
			}
		},
		{
			"type": "Feature",
			"properties": {
				"name": "三仙溪",
				"wikiID": null,
				"alt": null,
				"city": "臺東縣",
				"midpointX": "121.34",
				"midpointY": "23.1635",
				"field_7": null,
				"Y+X": "23.1635,121.34"
			},
			"geometry": {
				"type": "Point",
				"coordinates": [
					121.34,
					23.1635
				]
			}
		},
		{
			"type": "Feature",
			"properties": {
				"name": "三民溪",
				"wikiID": null,
				"alt": null,
				"city": "桃園市",
				"midpointX": "121.34",
				"midpointY": "24.8234",
				"field_7": null,
				"Y+X": "24.8234,121.34"
			},
			"geometry": {
				"type": "Point",
				"coordinates": [
					121.34,
					24.8234
				]
			}
		},
		{
			"type": "Feature",
			"properties": {
				"name": "三份圳",
				"wikiID": null,
				"alt": null,
				"city": "屏東縣",
				"midpointX": "120.6",
				"midpointY": "22.6326",
				"field_7": null,
				"Y+X": "22.6326,120.6"
			},
			"geometry": {
				"type": "Point",
				"coordinates": [
					120.6,
					22.6326
				]
			}
		},
		{
			"type": "Feature",
			"properties": {
				"name": "三份坑",
				"wikiID": null,
				"alt": null,
				"city": "宜蘭縣",
				"midpointX": "121.857",
				"midpointY": "24.9163",
				"field_7": null,
				"Y+X": "24.9163,121.857"
			},
			"geometry": {
				"type": "Point",
				"coordinates": [
					121.857,
					24.9163
				]
			}
		},
		{
			"type": "Feature",
			"properties": {
				"name": "三光溪",
				"wikiID": null,
				"alt": null,
				"city": "宜蘭縣",
				"midpointX": "121.376",
				"midpointY": "24.6151",
				"field_7": null,
				"Y+X": "24.6151,121.376"
			},
			"geometry": {
				"type": "Point",
				"coordinates": [
					121.376,
					24.6151
				]
			}
		},
		{
			"type": "Feature",
			"properties": {
				"name": "三光溪",
				"wikiID": "Q10865357",
				"alt": null,
				"city": "桃園市",
				"midpointX": "121.376",
				"midpointY": "24.6151",
				"field_7": null,
				"Y+X": "24.6151,121.376"
			},
			"geometry": {
				"type": "Point",
				"coordinates": [
					121.376,
					24.6151
				]
			}
		},
		{
			"type": "Feature",
			"properties": {
				"name": "三光溪",
				"wikiID": null,
				"alt": null,
				"city": "桃園市",
				"midpointX": "121.381",
				"midpointY": "24.6789",
				"field_7": null,
				"Y+X": "24.6789,121.381"
			},
			"geometry": {
				"type": "Point",
				"coordinates": [
					121.381,
					24.6789
				]
			}
		},
		{
			"type": "Feature",
			"properties": {
				"name": "三合溪",
				"wikiID": null,
				"alt": null,
				"city": "南投縣",
				"midpointX": "120.86",
				"midpointY": "23.8971",
				"field_7": null,
				"Y+X": "23.8971,120.86"
			},
			"geometry": {
				"type": "Point",
				"coordinates": [
					120.86,
					23.8971
				]
			}
		},
		{
			"type": "Feature",
			"properties": {
				"name": "三合溪",
				"wikiID": null,
				"alt": null,
				"city": "高雄市",
				"midpointX": "120.86",
				"midpointY": "23.8971",
				"field_7": null,
				"Y+X": "23.8971,120.86"
			},
			"geometry": {
				"type": "Point",
				"coordinates": [
					120.86,
					23.8971
				]
			}
		},
		{
			"type": "Feature",
			"properties": {
				"name": "三百六坑",
				"wikiID": null,
				"alt": null,
				"city": "苗栗縣",
				"midpointX": "120.909",
				"midpointY": "24.6055",
				"field_7": null,
				"Y+X": "24.6055,120.909"
			},
			"geometry": {
				"type": "Point",
				"coordinates": [
					120.909,
					24.6055
				]
			}
		},
		{
			"type": "Feature",
			"properties": {
				"name": "三坎溝",
				"wikiID": null,
				"alt": null,
				"city": "臺南市",
				"midpointX": "120.393",
				"midpointY": "23.1514",
				"field_7": null,
				"Y+X": "23.1514,120.393"
			},
			"geometry": {
				"type": "Point",
				"coordinates": [
					120.393,
					23.1514
				]
			}
		},
		{
			"type": "Feature",
			"properties": {
				"name": "三坑",
				"wikiID": null,
				"alt": null,
				"city": "宜蘭縣",
				"midpointX": "121.586",
				"midpointY": "24.6279",
				"field_7": null,
				"Y+X": "24.6279,121.586"
			},
			"geometry": {
				"type": "Point",
				"coordinates": [
					121.586,
					24.6279
				]
			}
		},
		{
			"type": "Feature",
			"properties": {
				"name": "三坑溪",
				"wikiID": null,
				"alt": null,
				"city": "新北市",
				"midpointX": "121.728",
				"midpointY": "25.0381",
				"field_7": null,
				"Y+X": "25.0381,121.728"
			},
			"geometry": {
				"type": "Point",
				"coordinates": [
					121.728,
					25.0381
				]
			}
		},
		{
			"type": "Feature",
			"properties": {
				"name": "三姓公溪",
				"wikiID": null,
				"alt": null,
				"city": "新竹市",
				"midpointX": "120.928",
				"midpointY": "24.7927",
				"field_7": null,
				"Y+X": "24.7927,120.928"
			},
			"geometry": {
				"type": "Point",
				"coordinates": [
					120.928,
					24.7927
				]
			}
		},
		{
			"type": "Feature",
			"properties": {
				"name": "三股溪",
				"wikiID": null,
				"alt": "大塭寮大排",
				"city": "臺南市",
				"midpointX": "120.097",
				"midpointY": "23.0998",
				"field_7": null,
				"Y+X": "23.0998,120.097"
			},
			"geometry": {
				"type": "Point",
				"coordinates": [
					120.097,
					23.0998
				]
			}
		},
		{
			"type": "Feature",
			"properties": {
				"name": "三重溪",
				"wikiID": null,
				"alt": null,
				"city": "台南市",
				"midpointX": null,
				"midpointY": null,
				"field_7": null,
				"Y+X": ","
			},
			"geometry": null
		},
		{
			"type": "Feature",
			"properties": {
				"name": "三重溪",
				"wikiID": null,
				"alt": null,
				"city": "嘉義縣",
				"midpointX": null,
				"midpointY": null,
				"field_7": null,
				"Y+X": ","
			},
			"geometry": null
		},
		{
			"type": "Feature",
			"properties": {
				"name": "三重歷溪",
				"wikiID": null,
				"alt": null,
				"city": "新竹縣",
				"midpointX": "121.061",
				"midpointY": "24.7545",
				"field_7": null,
				"Y+X": "24.7545,121.061"
			},
			"geometry": {
				"type": "Point",
				"coordinates": [
					121.061,
					24.7545
				]
			}
		},
		{
			"type": "Feature",
			"properties": {
				"name": "三家春坑",
				"wikiID": null,
				"alt": null,
				"city": "彰化縣",
				"midpointX": "120.584",
				"midpointY": "24.0186",
				"field_7": null,
				"Y+X": "24.0186,120.584"
			},
			"geometry": {
				"type": "Point",
				"coordinates": [
					120.584,
					24.0186
				]
			}
		},
		{
			"type": "Feature",
			"properties": {
				"name": "三峽河",
				"wikiID": "Q7419001",
				"alt": "三峽溪",
				"city": "新北市",
				"midpointX": "121.409",
				"midpointY": "24.9545",
				"field_7": null,
				"Y+X": "24.9545,121.409"
			},
			"geometry": {
				"type": "Point",
				"coordinates": [
					121.409,
					24.9545
				]
			}
		},
		{
			"type": "Feature",
			"properties": {
				"name": "三峽溪",
				"wikiID": null,
				"alt": null,
				"city": "新北市",
				"midpointX": "121.373",
				"midpointY": "24.9088",
				"field_7": null,
				"Y+X": "24.9088,121.373"
			},
			"geometry": {
				"type": "Point",
				"coordinates": [
					121.373,
					24.9088
				]
			}
		},
		{
			"type": "Feature",
			"properties": {
				"name": "三條圳幹線第一支線",
				"wikiID": null,
				"alt": null,
				"city": "彰化縣",
				"midpointX": "120.49",
				"midpointY": "23.8331",
				"field_7": null,
				"Y+X": "23.8331,120.49"
			},
			"geometry": {
				"type": "Point",
				"coordinates": [
					120.49,
					23.8331
				]
			}
		},
		{
			"type": "Feature",
			"properties": {
				"name": "三條崙漁港",
				"wikiID": null,
				"alt": null,
				"city": "雲林縣",
				"midpointX": "120.15",
				"midpointY": "23.6569",
				"field_7": null,
				"Y+X": "23.6569,120.15"
			},
			"geometry": {
				"type": "Point",
				"coordinates": [
					120.15,
					23.6569
				]
			}
		},
		{
			"type": "Feature",
			"properties": {
				"name": "三笠溪",
				"wikiID": "#N/A",
				"alt": null,
				"city": "花蓮縣",
				"midpointX": null,
				"midpointY": null,
				"field_7": null,
				"Y+X": ","
			},
			"geometry": null
		},
		{
			"type": "Feature",
			"properties": {
				"name": "三富溪",
				"wikiID": "Q10865829",
				"alt": null,
				"city": "花蓮縣",
				"midpointX": "121.454",
				"midpointY": "23.4462",
				"field_7": null,
				"Y+X": "23.4462,121.454"
			},
			"geometry": {
				"type": "Point",
				"coordinates": [
					121.454,
					23.4462
				]
			}
		},
		{
			"type": "Feature",
			"properties": {
				"name": "三棧北溪",
				"wikiID": null,
				"alt": null,
				"city": "花蓮縣",
				"midpointX": "121.549",
				"midpointY": "24.1341",
				"field_7": null,
				"Y+X": "24.1341,121.549"
			},
			"geometry": {
				"type": "Point",
				"coordinates": [
					121.549,
					24.1341
				]
			}
		},
		{
			"type": "Feature",
			"properties": {
				"name": "三棧南溪",
				"wikiID": null,
				"alt": null,
				"city": "花蓮縣",
				"midpointX": "121.603",
				"midpointY": "24.1032",
				"field_7": null,
				"Y+X": "24.1032,121.603"
			},
			"geometry": {
				"type": "Point",
				"coordinates": [
					121.603,
					24.1032
				]
			}
		},
		{
			"type": "Feature",
			"properties": {
				"name": "三棧溪",
				"wikiID": null,
				"alt": null,
				"city": "花蓮縣",
				"midpointX": "121.49",
				"midpointY": "24.1188",
				"field_7": null,
				"Y+X": "24.1188,121.49"
			},
			"geometry": {
				"type": "Point",
				"coordinates": [
					121.49,
					24.1188
				]
			}
		},
		{
			"type": "Feature",
			"properties": {
				"name": "三棧溪",
				"wikiID": "Q10866204",
				"alt": null,
				"city": "花蓮縣",
				"midpointX": null,
				"midpointY": null,
				"field_7": null,
				"Y+X": ","
			},
			"geometry": null
		},
		{
			"type": "Feature",
			"properties": {
				"name": "三間二號圳",
				"wikiID": null,
				"alt": null,
				"city": "臺東縣",
				"midpointX": "121.464",
				"midpointY": "23.3524",
				"field_7": null,
				"Y+X": "23.3524,121.464"
			},
			"geometry": {
				"type": "Point",
				"coordinates": [
					121.464,
					23.3524
				]
			}
		},
		{
			"type": "Feature",
			"properties": {
				"name": "三間屋溪",
				"wikiID": null,
				"alt": null,
				"city": "臺東縣",
				"midpointX": "121.467",
				"midpointY": "23.3628",
				"field_7": null,
				"Y+X": "23.3628,121.467"
			},
			"geometry": {
				"type": "Point",
				"coordinates": [
					121.467,
					23.3628
				]
			}
		},
		{
			"type": "Feature",
			"properties": {
				"name": "三塊石埤",
				"wikiID": null,
				"alt": null,
				"city": "桃園市",
				"midpointX": "121.251",
				"midpointY": "25.0683",
				"field_7": null,
				"Y+X": "25.0683,121.251"
			},
			"geometry": {
				"type": "Point",
				"coordinates": [
					121.251,
					25.0683
				]
			}
		},
		{
			"type": "Feature",
			"properties": {
				"name": "三塊厝排水",
				"wikiID": null,
				"alt": null,
				"city": "南投縣",
				"midpointX": "120.645",
				"midpointY": "23.8941",
				"field_7": null,
				"Y+X": "23.8941,120.645"
			},
			"geometry": {
				"type": "Point",
				"coordinates": [
					120.645,
					23.8941
				]
			}
		},
		{
			"type": "Feature",
			"properties": {
				"name": "三塊厝溝",
				"wikiID": null,
				"alt": null,
				"city": "高雄市",
				"midpointX": "120.342",
				"midpointY": "22.7631",
				"field_7": null,
				"Y+X": "22.7631,120.342"
			},
			"geometry": {
				"type": "Point",
				"coordinates": [
					120.342,
					22.7631
				]
			}
		},
		{
			"type": "Feature",
			"properties": {
				"name": "三爺溪排水",
				"wikiID": "#N/A",
				"alt": "三爺溪,三爺宮溪",
				"city": "臺南市",
				"midpointX": "120.192",
				"midpointY": "22.921",
				"field_7": null,
				"Y+X": "22.921,120.192"
			},
			"geometry": {
				"type": "Point",
				"coordinates": [
					120.192,
					22.921
				]
			}
		},
		{
			"type": "Feature",
			"properties": {
				"name": "三爺溪排水",
				"wikiID": null,
				"alt": null,
				"city": "高雄市",
				"midpointX": "120.193",
				"midpointY": "22.9229",
				"field_7": null,
				"Y+X": "22.9229,120.193"
			},
			"geometry": {
				"type": "Point",
				"coordinates": [
					120.193,
					22.9229
				]
			}
		},
		{
			"type": "Feature",
			"properties": {
				"name": "三爺溪排水",
				"wikiID": null,
				"alt": null,
				"city": "臺南市",
				"midpointX": "120.257",
				"midpointY": "22.945",
				"field_7": null,
				"Y+X": "22.945,120.257"
			},
			"geometry": {
				"type": "Point",
				"coordinates": [
					120.257,
					22.945
				]
			}
		},
		{
			"type": "Feature",
			"properties": {
				"name": "三號溪",
				"wikiID": null,
				"alt": null,
				"city": "南投縣",
				"midpointX": "120.854",
				"midpointY": "23.5691",
				"field_7": null,
				"Y+X": "23.5691,120.854"
			},
			"geometry": {
				"type": "Point",
				"coordinates": [
					120.854,
					23.5691
				]
			}
		},
		{
			"type": "Feature",
			"properties": {
				"name": "三寮灣溪",
				"wikiID": null,
				"alt": null,
				"city": "臺南市",
				"midpointX": "120.12",
				"midpointY": "23.2512",
				"field_7": null,
				"Y+X": "23.2512,120.12"
			},
			"geometry": {
				"type": "Point",
				"coordinates": [
					120.12,
					23.2512
				]
			}
		},
		{
			"type": "Feature",
			"properties": {
				"name": "三層坪坑",
				"wikiID": null,
				"alt": null,
				"city": "宜蘭縣",
				"midpointX": "121.742",
				"midpointY": "24.6105",
				"field_7": null,
				"Y+X": "24.6105,121.742"
			},
			"geometry": {
				"type": "Point",
				"coordinates": [
					121.742,
					24.6105
				]
			}
		},
		{
			"type": "Feature",
			"properties": {
				"name": "三興坑排水",
				"wikiID": null,
				"alt": null,
				"city": "南投縣",
				"midpointX": "120.679",
				"midpointY": "23.903",
				"field_7": null,
				"Y+X": "23.903,120.679"
			},
			"geometry": {
				"type": "Point",
				"coordinates": [
					120.679,
					23.903
				]
			}
		},
		{
			"type": "Feature",
			"properties": {
				"name": "三疊溪",
				"wikiID": null,
				"alt": null,
				"city": "嘉義縣",
				"midpointX": "120.441",
				"midpointY": "23.5915",
				"field_7": null,
				"Y+X": "23.5915,120.441"
			},
			"geometry": {
				"type": "Point",
				"coordinates": [
					120.441,
					23.5915
				]
			}
		},
		{
			"type": "Feature",
			"properties": {
				"name": "三疊溪",
				"wikiID": "#N/A",
				"alt": null,
				"city": "雲林縣",
				"midpointX": "120.371",
				"midpointY": "23.6093",
				"field_7": null,
				"Y+X": "23.6093,120.371"
			},
			"geometry": {
				"type": "Point",
				"coordinates": [
					120.371,
					23.6093
				]
			}
		},
		{
			"type": "Feature",
			"properties": {
				"name": "三疊溪",
				"wikiID": "#N/A",
				"alt": null,
				"city": "嘉義縣",
				"midpointX": "120.371",
				"midpointY": "23.6093",
				"field_7": null,
				"Y+X": "23.6093,120.371"
			},
			"geometry": {
				"type": "Point",
				"coordinates": [
					120.371,
					23.6093
				]
			}
		},
		{
			"type": "Feature",
			"properties": {
				"name": "三灣圳",
				"wikiID": null,
				"alt": null,
				"city": "苗栗縣",
				"midpointX": "120.975",
				"midpointY": "24.6458",
				"field_7": null,
				"Y+X": "24.6458,120.975"
			},
			"geometry": {
				"type": "Point",
				"coordinates": [
					120.975,
					24.6458
				]
			}
		},
		{
			"type": "Feature",
			"properties": {
				"name": "上大埤頭",
				"wikiID": null,
				"alt": null,
				"city": "桃園市",
				"midpointX": "121.15",
				"midpointY": "24.9736",
				"field_7": null,
				"Y+X": "24.9736,121.15"
			},
			"geometry": {
				"type": "Point",
				"coordinates": [
					121.15,
					24.9736
				]
			}
		},
		{
			"type": "Feature",
			"properties": {
				"name": "上水圳",
				"wikiID": null,
				"alt": null,
				"city": "宜蘭縣",
				"midpointX": "121.64",
				"midpointY": "24.7203",
				"field_7": null,
				"Y+X": "24.7203,121.64"
			},
			"geometry": {
				"type": "Point",
				"coordinates": [
					121.64,
					24.7203
				]
			}
		},
		{
			"type": "Feature",
			"properties": {
				"name": "上四座屋圳",
				"wikiID": null,
				"alt": null,
				"city": "新竹縣",
				"midpointX": "121.106",
				"midpointY": "24.8437",
				"field_7": null,
				"Y+X": "24.8437,121.106"
			},
			"geometry": {
				"type": "Point",
				"coordinates": [
					121.106,
					24.8437
				]
			}
		},
		{
			"type": "Feature",
			"properties": {
				"name": "上坑",
				"wikiID": null,
				"alt": null,
				"city": "臺中市",
				"midpointX": "120.785",
				"midpointY": "24.2493",
				"field_7": null,
				"Y+X": "24.2493,120.785"
			},
			"geometry": {
				"type": "Point",
				"coordinates": [
					120.785,
					24.2493
				]
			}
		},
		{
			"type": "Feature",
			"properties": {
				"name": "上坑支線",
				"wikiID": null,
				"alt": null,
				"city": "新竹縣",
				"midpointX": "120.984",
				"midpointY": "24.9026",
				"field_7": null,
				"Y+X": "24.9026,120.984"
			},
			"geometry": {
				"type": "Point",
				"coordinates": [
					120.984,
					24.9026
				]
			}
		},
		{
			"type": "Feature",
			"properties": {
				"name": "上坪圳",
				"wikiID": null,
				"alt": null,
				"city": "苗栗縣",
				"midpointX": "120.879",
				"midpointY": "24.4298",
				"field_7": null,
				"Y+X": "24.4298,120.879"
			},
			"geometry": {
				"type": "Point",
				"coordinates": [
					120.879,
					24.4298
				]
			}
		},
		{
			"type": "Feature",
			"properties": {
				"name": "上坪溪",
				"wikiID": null,
				"alt": null,
				"city": "新竹縣",
				"midpointX": "121.101",
				"midpointY": "24.6822",
				"field_7": null,
				"Y+X": "24.6822,121.101"
			},
			"geometry": {
				"type": "Point",
				"coordinates": [
					121.101,
					24.6822
				]
			}
		},
		{
			"type": "Feature",
			"properties": {
				"name": "上坪溪",
				"wikiID": "Q10867286",
				"alt": null,
				"city": "新竹縣",
				"midpointX": "121.103",
				"midpointY": "24.7169",
				"field_7": null,
				"Y+X": "24.7169,121.103"
			},
			"geometry": {
				"type": "Point",
				"coordinates": [
					121.103,
					24.7169
				]
			}
		},
		{
			"type": "Feature",
			"properties": {
				"name": "上坪攔河堰導水路",
				"wikiID": null,
				"alt": null,
				"city": "新竹縣",
				"midpointX": "121.072",
				"midpointY": "24.7395",
				"field_7": null,
				"Y+X": "24.7395,121.072"
			},
			"geometry": {
				"type": "Point",
				"coordinates": [
					121.072,
					24.7395
				]
			}
		},
		{
			"type": "Feature",
			"properties": {
				"name": "上林圳",
				"wikiID": null,
				"alt": null,
				"city": "南投縣",
				"midpointX": "120.946",
				"midpointY": "23.8833",
				"field_7": null,
				"Y+X": "23.8833,120.946"
			},
			"geometry": {
				"type": "Point",
				"coordinates": [
					120.946,
					23.8833
				]
			}
		},
		{
			"type": "Feature",
			"properties": {
				"name": "上茄苳埤",
				"wikiID": null,
				"alt": null,
				"city": "臺南市",
				"midpointX": "120.392",
				"midpointY": "23.3915",
				"field_7": null,
				"Y+X": "23.3915,120.392"
			},
			"geometry": {
				"type": "Point",
				"coordinates": [
					120.392,
					23.3915
				]
			}
		},
		{
			"type": "Feature",
			"properties": {
				"name": "下大坑",
				"wikiID": null,
				"alt": null,
				"city": "苗栗縣",
				"midpointX": "120.846",
				"midpointY": "24.5034",
				"field_7": null,
				"Y+X": "24.5034,120.846"
			},
			"geometry": {
				"type": "Point",
				"coordinates": [
					120.846,
					24.5034
				]
			}
		},
		{
			"type": "Feature",
			"properties": {
				"name": "下山坑排水",
				"wikiID": null,
				"alt": null,
				"city": "彰化縣",
				"midpointX": "120.621",
				"midpointY": "23.9966",
				"field_7": null,
				"Y+X": "23.9966,120.621"
			},
			"geometry": {
				"type": "Point",
				"coordinates": [
					120.621,
					23.9966
				]
			}
		},
		{
			"type": "Feature",
			"properties": {
				"name": "下山溪",
				"wikiID": null,
				"alt": null,
				"city": "臺南市",
				"midpointX": "120.09",
				"midpointY": "23.1504",
				"field_7": null,
				"Y+X": "23.1504,120.09"
			},
			"geometry": {
				"type": "Point",
				"coordinates": [
					120.09,
					23.1504
				]
			}
		},
		{
			"type": "Feature",
			"properties": {
				"name": "下木浪坑",
				"wikiID": null,
				"alt": null,
				"city": "臺中市",
				"midpointX": "120.862",
				"midpointY": "24.2437",
				"field_7": null,
				"Y+X": "24.2437,120.862"
			},
			"geometry": {
				"type": "Point",
				"coordinates": [
					120.862,
					24.2437
				]
			}
		},
		{
			"type": "Feature",
			"properties": {
				"name": "下田溪",
				"wikiID": null,
				"alt": null,
				"city": "桃園市",
				"midpointX": "121.08",
				"midpointY": "24.9737",
				"field_7": null,
				"Y+X": "24.9737,121.08"
			},
			"geometry": {
				"type": "Point",
				"coordinates": [
					121.08,
					24.9737
				]
			}
		},
		{
			"type": "Feature",
			"properties": {
				"name": "下圭柔山溪",
				"wikiID": null,
				"alt": null,
				"city": "新北市",
				"midpointX": "121.426",
				"midpointY": "25.1976",
				"field_7": null,
				"Y+X": "25.1976,121.426"
			},
			"geometry": {
				"type": "Point",
				"coordinates": [
					121.426,
					25.1976
				]
			}
		},
		{
			"type": "Feature",
			"properties": {
				"name": "下冷水坑圳",
				"wikiID": null,
				"alt": null,
				"city": "屏東縣",
				"midpointX": "120.491",
				"midpointY": "22.7155",
				"field_7": null,
				"Y+X": "22.7155,120.491"
			},
			"geometry": {
				"type": "Point",
				"coordinates": [
					120.491,
					22.7155
				]
			}
		},
		{
			"type": "Feature",
			"properties": {
				"name": "下坑",
				"wikiID": null,
				"alt": null,
				"city": "臺中市",
				"midpointX": "120.776",
				"midpointY": "24.2464",
				"field_7": null,
				"Y+X": "24.2464,120.776"
			},
			"geometry": {
				"type": "Point",
				"coordinates": [
					120.776,
					24.2464
				]
			}
		},
		{
			"type": "Feature",
			"properties": {
				"name": "下坑溪",
				"wikiID": null,
				"alt": null,
				"city": "新北市",
				"midpointX": "121.8",
				"midpointY": "24.9929",
				"field_7": null,
				"Y+X": "24.9929,121.8"
			},
			"geometry": {
				"type": "Point",
				"coordinates": [
					121.8,
					24.9929
				]
			}
		},
		{
			"type": "Feature",
			"properties": {
				"name": "下角港溪",
				"wikiID": null,
				"alt": null,
				"city": "臺東縣",
				"midpointX": "121.242",
				"midpointY": "22.9775",
				"field_7": null,
				"Y+X": "22.9775,121.242"
			},
			"geometry": {
				"type": "Point",
				"coordinates": [
					121.242,
					22.9775
				]
			}
		},
		{
			"type": "Feature",
			"properties": {
				"name": "下坪仔排水",
				"wikiID": null,
				"alt": null,
				"city": "臺中市",
				"midpointX": "120.889",
				"midpointY": "24.1588",
				"field_7": null,
				"Y+X": "24.1588,120.889"
			},
			"geometry": {
				"type": "Point",
				"coordinates": [
					120.889,
					24.1588
				]
			}
		},
		{
			"type": "Feature",
			"properties": {
				"name": "下淡水溪支流",
				"wikiID": null,
				"alt": null,
				"city": "屏東縣",
				"midpointX": "120.449",
				"midpointY": "22.5621",
				"field_7": null,
				"Y+X": "22.5621,120.449"
			},
			"geometry": {
				"type": "Point",
				"coordinates": [
					120.449,
					22.5621
				]
			}
		},
		{
			"type": "Feature",
			"properties": {
				"name": "下陰影窩溪",
				"wikiID": null,
				"alt": null,
				"city": "桃園市",
				"midpointX": "121.088",
				"midpointY": "24.9439",
				"field_7": null,
				"Y+X": "24.9439,121.088"
			},
			"geometry": {
				"type": "Point",
				"coordinates": [
					121.088,
					24.9439
				]
			}
		},
		{
			"type": "Feature",
			"properties": {
				"name": "下勞灣溪",
				"wikiID": null,
				"alt": "樂合溪",
				"city": "花蓮縣",
				"midpointX": "121.403",
				"midpointY": "23.3434",
				"field_7": null,
				"Y+X": "23.3434,121.403"
			},
			"geometry": {
				"type": "Point",
				"coordinates": [
					121.403,
					23.3434
				]
			}
		},
		{
			"type": "Feature",
			"properties": {
				"name": "下痢坑",
				"wikiID": null,
				"alt": null,
				"city": "臺南市",
				"midpointX": "120.552",
				"midpointY": "23.1133",
				"field_7": null,
				"Y+X": "23.1133,120.552"
			},
			"geometry": {
				"type": "Point",
				"coordinates": [
					120.552,
					23.1133
				]
			}
		},
		{
			"type": "Feature",
			"properties": {
				"name": "下塘埤",
				"wikiID": null,
				"alt": null,
				"city": "桃園市",
				"midpointX": "121.086",
				"midpointY": "25.0135",
				"field_7": null,
				"Y+X": "25.0135,121.086"
			},
			"geometry": {
				"type": "Point",
				"coordinates": [
					121.086,
					25.0135
				]
			}
		},
		{
			"type": "Feature",
			"properties": {
				"name": "下廍溪",
				"wikiID": null,
				"alt": null,
				"city": null,
				"midpointX": null,
				"midpointY": null,
				"field_7": null,
				"Y+X": ","
			},
			"geometry": null
		},
		{
			"type": "Feature",
			"properties": {
				"name": "下廓溪",
				"wikiID": null,
				"alt": null,
				"city": "屏東縣",
				"midpointX": "120.485",
				"midpointY": "22.4638",
				"field_7": null,
				"Y+X": "22.4638,120.485"
			},
			"geometry": {
				"type": "Point",
				"coordinates": [
					120.485,
					22.4638
				]
			}
		},
		{
			"type": "Feature",
			"properties": {
				"name": "下寮溪",
				"wikiID": "Q9383929",
				"alt": null,
				"city": "新北市",
				"midpointX": "121.649",
				"midpointY": "25.0494",
				"field_7": null,
				"Y+X": "25.0494,121.649"
			},
			"geometry": {
				"type": "Point",
				"coordinates": [
					121.649,
					25.0494
				]
			}
		},
		{
			"type": "Feature",
			"properties": {
				"name": "下橫坑",
				"wikiID": null,
				"alt": null,
				"city": "新竹縣",
				"midpointX": "121.125",
				"midpointY": "24.7879",
				"field_7": null,
				"Y+X": "24.7879,121.125"
			},
			"geometry": {
				"type": "Point",
				"coordinates": [
					121.125,
					24.7879
				]
			}
		},
		{
			"type": "Feature",
			"properties": {
				"name": "下橫坑",
				"wikiID": null,
				"alt": null,
				"city": "臺中市",
				"midpointX": "121.125",
				"midpointY": "24.7879",
				"field_7": null,
				"Y+X": "24.7879,121.125"
			},
			"geometry": {
				"type": "Point",
				"coordinates": [
					121.125,
					24.7879
				]
			}
		},
		{
			"type": "Feature",
			"properties": {
				"name": "下橫坑溪",
				"wikiID": null,
				"alt": null,
				"city": "新竹縣",
				"midpointX": null,
				"midpointY": null,
				"field_7": null,
				"Y+X": ","
			},
			"geometry": null
		},
		{
			"type": "Feature",
			"properties": {
				"name": "下龍貍溪",
				"wikiID": null,
				"alt": null,
				"city": "屏東縣",
				"midpointX": "120.72",
				"midpointY": "22.062",
				"field_7": null,
				"Y+X": "22.062,120.72"
			},
			"geometry": {
				"type": "Point",
				"coordinates": [
					120.72,
					22.062
				]
			}
		},
		{
			"type": "Feature",
			"properties": {
				"name": "丸田溪",
				"wikiID": null,
				"alt": null,
				"city": "花蓮縣",
				"midpointX": "121.342",
				"midpointY": "23.9952",
				"field_7": null,
				"Y+X": "23.9952,121.342"
			},
			"geometry": {
				"type": "Point",
				"coordinates": [
					121.342,
					23.9952
				]
			}
		},
		{
			"type": "Feature",
			"properties": {
				"name": "口社溪",
				"wikiID": null,
				"alt": null,
				"city": "屏東縣",
				"midpointX": "120.667",
				"midpointY": "22.793",
				"field_7": null,
				"Y+X": "22.793,120.667"
			},
			"geometry": {
				"type": "Point",
				"coordinates": [
					120.667,
					22.793
				]
			}
		},
		{
			"type": "Feature",
			"properties": {
				"name": "口隘溪",
				"wikiID": "#N/A",
				"alt": null,
				"city": "高雄市",
				"midpointX": "120.492",
				"midpointY": "22.935",
				"field_7": null,
				"Y+X": "22.935,120.492"
			},
			"geometry": {
				"type": "Point",
				"coordinates": [
					120.492,
					22.935
				]
			}
		},
		{
			"type": "Feature",
			"properties": {
				"name": "口隘溪",
				"wikiID": null,
				"alt": null,
				"city": "高雄市",
				"midpointX": "120.49",
				"midpointY": "22.9444",
				"field_7": null,
				"Y+X": "22.9444,120.49"
			},
			"geometry": {
				"type": "Point",
				"coordinates": [
					120.49,
					22.9444
				]
			}
		},
		{
			"type": "Feature",
			"properties": {
				"name": "土人頭坑",
				"wikiID": null,
				"alt": null,
				"city": "臺南市",
				"midpointX": "120.452",
				"midpointY": "23.4033",
				"field_7": null,
				"Y+X": "23.4033,120.452"
			},
			"geometry": {
				"type": "Point",
				"coordinates": [
					120.452,
					23.4033
				]
			}
		},
		{
			"type": "Feature",
			"properties": {
				"name": "土地公坑",
				"wikiID": null,
				"alt": null,
				"city": "雲林縣",
				"midpointX": "120.624",
				"midpointY": "23.6946",
				"field_7": null,
				"Y+X": "23.6946,120.624"
			},
			"geometry": {
				"type": "Point",
				"coordinates": [
					120.624,
					23.6946
				]
			}
		},
		{
			"type": "Feature",
			"properties": {
				"name": "土地公坑",
				"wikiID": null,
				"alt": null,
				"city": "南投縣",
				"midpointX": "120.771",
				"midpointY": "23.9469",
				"field_7": null,
				"Y+X": "23.9469,120.771"
			},
			"geometry": {
				"type": "Point",
				"coordinates": [
					120.771,
					23.9469
				]
			}
		},
		{
			"type": "Feature",
			"properties": {
				"name": "土地公坑",
				"wikiID": null,
				"alt": null,
				"city": "彰化縣",
				"midpointX": "120.596",
				"midpointY": "23.9737",
				"field_7": null,
				"Y+X": "23.9737,120.596"
			},
			"geometry": {
				"type": "Point",
				"coordinates": [
					120.596,
					23.9737
				]
			}
		},
		{
			"type": "Feature",
			"properties": {
				"name": "土地公坑",
				"wikiID": null,
				"alt": "土地公坑溪",
				"city": "彰化縣",
				"midpointX": "120.844",
				"midpointY": "24.013",
				"field_7": null,
				"Y+X": "24.013,120.844"
			},
			"geometry": {
				"type": "Point",
				"coordinates": [
					120.844,
					24.013
				]
			}
		},
		{
			"type": "Feature",
			"properties": {
				"name": "土地公坑",
				"wikiID": null,
				"alt": "土地公坑溪",
				"city": "南投縣",
				"midpointX": "120.844",
				"midpointY": "24.013",
				"field_7": null,
				"Y+X": "24.013,120.844"
			},
			"geometry": {
				"type": "Point",
				"coordinates": [
					120.844,
					24.013
				]
			}
		},
		{
			"type": "Feature",
			"properties": {
				"name": "土地公坑",
				"wikiID": null,
				"alt": "土地公坑溪",
				"city": "雲林縣",
				"midpointX": "120.844",
				"midpointY": "24.013",
				"field_7": null,
				"Y+X": "24.013,120.844"
			},
			"geometry": {
				"type": "Point",
				"coordinates": [
					120.844,
					24.013
				]
			}
		},
		{
			"type": "Feature",
			"properties": {
				"name": "土地公坑",
				"wikiID": null,
				"alt": "土地公坑溪",
				"city": "臺中市",
				"midpointX": "120.844",
				"midpointY": "24.013",
				"field_7": null,
				"Y+X": "24.013,120.844"
			},
			"geometry": {
				"type": "Point",
				"coordinates": [
					120.844,
					24.013
				]
			}
		},
		{
			"type": "Feature",
			"properties": {
				"name": "土地公坑",
				"wikiID": null,
				"alt": null,
				"city": "臺中市",
				"midpointX": "120.783",
				"midpointY": "24.1956",
				"field_7": null,
				"Y+X": "24.1956,120.783"
			},
			"geometry": {
				"type": "Point",
				"coordinates": [
					120.783,
					24.1956
				]
			}
		},
		{
			"type": "Feature",
			"properties": {
				"name": "土地公埔一圳",
				"wikiID": null,
				"alt": null,
				"city": "新竹縣",
				"midpointX": "121.059",
				"midpointY": "24.8248",
				"field_7": null,
				"Y+X": "24.8248,121.059"
			},
			"geometry": {
				"type": "Point",
				"coordinates": [
					121.059,
					24.8248
				]
			}
		},
		{
			"type": "Feature",
			"properties": {
				"name": "土地公埤",
				"wikiID": null,
				"alt": null,
				"city": "桃園市",
				"midpointX": "121.118",
				"midpointY": "25.0087",
				"field_7": null,
				"Y+X": "25.0087,121.118"
			},
			"geometry": {
				"type": "Point",
				"coordinates": [
					121.118,
					25.0087
				]
			}
		},
		{
			"type": "Feature",
			"properties": {
				"name": "土地公溪",
				"wikiID": null,
				"alt": null,
				"city": "彰化縣",
				"midpointX": "121.349",
				"midpointY": "24.915",
				"field_7": null,
				"Y+X": "24.915,121.349"
			},
			"geometry": {
				"type": "Point",
				"coordinates": [
					121.349,
					24.915
				]
			}
		},
		{
			"type": "Feature",
			"properties": {
				"name": "土地公溪",
				"wikiID": null,
				"alt": null,
				"city": "新北市",
				"midpointX": "121.349",
				"midpointY": "24.915",
				"field_7": null,
				"Y+X": "24.915,121.349"
			},
			"geometry": {
				"type": "Point",
				"coordinates": [
					121.349,
					24.915
				]
			}
		},
		{
			"type": "Feature",
			"properties": {
				"name": "土南坑",
				"wikiID": null,
				"alt": null,
				"city": "南投縣",
				"midpointX": "120.801",
				"midpointY": "24.0162",
				"field_7": null,
				"Y+X": "24.0162,120.801"
			},
			"geometry": {
				"type": "Point",
				"coordinates": [
					120.801,
					24.0162
				]
			}
		},
		{
			"type": "Feature",
			"properties": {
				"name": "土城溪",
				"wikiID": null,
				"alt": null,
				"city": "苗栗縣",
				"midpointX": "120.753",
				"midpointY": "24.4583",
				"field_7": null,
				"Y+X": "24.4583,120.753"
			},
			"geometry": {
				"type": "Point",
				"coordinates": [
					120.753,
					24.4583
				]
			}
		},
		{
			"type": "Feature",
			"properties": {
				"name": "土埋坑",
				"wikiID": null,
				"alt": null,
				"city": "臺南市",
				"midpointX": "120.437",
				"midpointY": "23.2041",
				"field_7": null,
				"Y+X": "23.2041,120.437"
			},
			"geometry": {
				"type": "Point",
				"coordinates": [
					120.437,
					23.2041
				]
			}
		},
		{
			"type": "Feature",
			"properties": {
				"name": "土庫溪",
				"wikiID": null,
				"alt": null,
				"city": "臺中市",
				"midpointX": "120.632",
				"midpointY": "24.1037",
				"field_7": null,
				"Y+X": "24.1037,120.632"
			},
			"geometry": {
				"type": "Point",
				"coordinates": [
					120.632,
					24.1037
				]
			}
		},
		{
			"type": "Feature",
			"properties": {
				"name": "土場溪",
				"wikiID": null,
				"alt": "多望溪",
				"city": "宜蘭縣",
				"midpointX": "121.505",
				"midpointY": "24.5541",
				"field_7": null,
				"Y+X": "24.5541,121.505"
			},
			"geometry": {
				"type": "Point",
				"coordinates": [
					121.505,
					24.5541
				]
			}
		},
		{
			"type": "Feature",
			"properties": {
				"name": "土場溪",
				"wikiID": null,
				"alt": null,
				"city": "新竹縣",
				"midpointX": "121.087",
				"midpointY": "24.5705",
				"field_7": null,
				"Y+X": "24.5705,121.087"
			},
			"geometry": {
				"type": "Point",
				"coordinates": [
					121.087,
					24.5705
				]
			}
		},
		{
			"type": "Feature",
			"properties": {
				"name": "土場溪",
				"wikiID": "#N/A",
				"alt": "多望溪",
				"city": "宜蘭縣",
				"midpointX": "121.497",
				"midpointY": "24.5761",
				"field_7": null,
				"Y+X": "24.5761,121.497"
			},
			"geometry": {
				"type": "Point",
				"coordinates": [
					121.497,
					24.5761
				]
			}
		},
		{
			"type": "Feature",
			"properties": {
				"name": "土濁坑",
				"wikiID": null,
				"alt": null,
				"city": "南投縣",
				"midpointX": "120.916",
				"midpointY": "23.7566",
				"field_7": null,
				"Y+X": "23.7566,120.916"
			},
			"geometry": {
				"type": "Point",
				"coordinates": [
					120.916,
					23.7566
				]
			}
		},
		{
			"type": "Feature",
			"properties": {
				"name": "土龍溝埤",
				"wikiID": null,
				"alt": null,
				"city": "桃園市",
				"midpointX": "121.109",
				"midpointY": "25.0042",
				"field_7": null,
				"Y+X": "25.0042,121.109"
			},
			"geometry": {
				"type": "Point",
				"coordinates": [
					121.109,
					25.0042
				]
			}
		},
		{
			"type": "Feature",
			"properties": {
				"name": "士文溪",
				"wikiID": null,
				"alt": null,
				"city": "屏東縣",
				"midpointX": "120.689",
				"midpointY": "22.3799",
				"field_7": null,
				"Y+X": "22.3799,120.689"
			},
			"geometry": {
				"type": "Point",
				"coordinates": [
					120.689,
					22.3799
				]
			}
		},
		{
			"type": "Feature",
			"properties": {
				"name": "大山坑",
				"wikiID": null,
				"alt": null,
				"city": "臺南市",
				"midpointX": "120.384",
				"midpointY": "23.2226",
				"field_7": null,
				"Y+X": "23.2226,120.384"
			},
			"geometry": {
				"type": "Point",
				"coordinates": [
					120.384,
					23.2226
				]
			}
		},
		{
			"type": "Feature",
			"properties": {
				"name": "大山溝",
				"wikiID": null,
				"alt": null,
				"city": "高雄市",
				"midpointX": "120.387",
				"midpointY": "22.9046",
				"field_7": null,
				"Y+X": "22.9046,120.387"
			},
			"geometry": {
				"type": "Point",
				"coordinates": [
					120.387,
					22.9046
				]
			}
		},
		{
			"type": "Feature",
			"properties": {
				"name": "大不岸溪",
				"wikiID": null,
				"alt": null,
				"city": "花蓮縣",
				"midpointX": "121.537",
				"midpointY": "23.6555",
				"field_7": null,
				"Y+X": "23.6555,121.537"
			},
			"geometry": {
				"type": "Point",
				"coordinates": [
					121.537,
					23.6555
				]
			}
		},
		{
			"type": "Feature",
			"properties": {
				"name": "大內坑溪",
				"wikiID": "#N/A",
				"alt": null,
				"city": "基隆市",
				"midpointX": null,
				"midpointY": null,
				"field_7": null,
				"Y+X": ","
			},
			"geometry": null
		},
		{
			"type": "Feature",
			"properties": {
				"name": "大屯溪",
				"wikiID": null,
				"alt": null,
				"city": "新北市",
				"midpointX": "121.492",
				"midpointY": "25.2231",
				"field_7": null,
				"Y+X": "25.2231,121.492"
			},
			"geometry": {
				"type": "Point",
				"coordinates": [
					121.492,
					25.2231
				]
			}
		},
		{
			"type": "Feature",
			"properties": {
				"name": "大屯溪",
				"wikiID": "Q10935069",
				"alt": null,
				"city": "新北市",
				"midpointX": "121.45",
				"midpointY": "25.2359",
				"field_7": null,
				"Y+X": "25.2359,121.45"
			},
			"geometry": {
				"type": "Point",
				"coordinates": [
					121.45,
					25.2359
				]
			}
		},
		{
			"type": "Feature",
			"properties": {
				"name": "大牛林坑",
				"wikiID": null,
				"alt": null,
				"city": "臺南市",
				"midpointX": "120.612",
				"midpointY": "23.177",
				"field_7": null,
				"Y+X": "23.177,120.612"
			},
			"geometry": {
				"type": "Point",
				"coordinates": [
					120.612,
					23.177
				]
			}
		},
		{
			"type": "Feature",
			"properties": {
				"name": "大丘園坑",
				"wikiID": null,
				"alt": null,
				"city": "彰化縣",
				"midpointX": "120.637",
				"midpointY": "23.8136",
				"field_7": null,
				"Y+X": "23.8136,120.637"
			},
			"geometry": {
				"type": "Point",
				"coordinates": [
					120.637,
					23.8136
				]
			}
		},
		{
			"type": "Feature",
			"properties": {
				"name": "大北坑",
				"wikiID": null,
				"alt": null,
				"city": "新竹縣",
				"midpointX": "121.165",
				"midpointY": "24.862",
				"field_7": null,
				"Y+X": "24.862,121.165"
			},
			"geometry": {
				"type": "Point",
				"coordinates": [
					121.165,
					24.862
				]
			}
		},
		{
			"type": "Feature",
			"properties": {
				"name": "大北坑",
				"wikiID": null,
				"alt": null,
				"city": "桃園市",
				"midpointX": "121.165",
				"midpointY": "24.862",
				"field_7": null,
				"Y+X": "24.862,121.165"
			},
			"geometry": {
				"type": "Point",
				"coordinates": [
					121.165,
					24.862
				]
			}
		},
		{
			"type": "Feature",
			"properties": {
				"name": "大北坑溪",
				"wikiID": null,
				"alt": null,
				"city": null,
				"midpointX": null,
				"midpointY": null,
				"field_7": null,
				"Y+X": ","
			},
			"geometry": null
		},
		{
			"type": "Feature",
			"properties": {
				"name": "大北勢溪",
				"wikiID": null,
				"alt": null,
				"city": "高雄市",
				"midpointX": "120.643",
				"midpointY": "23.1289",
				"field_7": null,
				"Y+X": "23.1289,120.643"
			},
			"geometry": {
				"type": "Point",
				"coordinates": [
					120.643,
					23.1289
				]
			}
		},
		{
			"type": "Feature",
			"properties": {
				"name": "大古溪",
				"wikiID": null,
				"alt": null,
				"city": "桃園市",
				"midpointX": "121.159",
				"midpointY": "24.9574",
				"field_7": null,
				"Y+X": "24.9574,121.159"
			},
			"geometry": {
				"type": "Point",
				"coordinates": [
					121.159,
					24.9574
				]
			}
		},
		{
			"type": "Feature",
			"properties": {
				"name": "大平坑",
				"wikiID": null,
				"alt": null,
				"city": "高雄市",
				"midpointX": "120.553",
				"midpointY": "22.9262",
				"field_7": null,
				"Y+X": "22.9262,120.553"
			},
			"geometry": {
				"type": "Point",
				"coordinates": [
					120.553,
					22.9262
				]
			}
		},
		{
			"type": "Feature",
			"properties": {
				"name": "大平窩溪",
				"wikiID": null,
				"alt": null,
				"city": "新竹縣",
				"midpointX": "121.087",
				"midpointY": "24.8605",
				"field_7": null,
				"Y+X": "24.8605,121.087"
			},
			"geometry": {
				"type": "Point",
				"coordinates": [
					121.087,
					24.8605
				]
			}
		},
		{
			"type": "Feature",
			"properties": {
				"name": "大甲九圳",
				"wikiID": null,
				"alt": null,
				"city": "新北市",
				"midpointX": "121.352",
				"midpointY": "24.9499",
				"field_7": null,
				"Y+X": "24.9499,121.352"
			},
			"geometry": {
				"type": "Point",
				"coordinates": [
					121.352,
					24.9499
				]
			}
		},
		{
			"type": "Feature",
			"properties": {
				"name": "大甲溪",
				"wikiID": null,
				"alt": null,
				"city": "臺中市",
				"midpointX": "121.202",
				"midpointY": "24.2826",
				"field_7": null,
				"Y+X": "24.2826,121.202"
			},
			"geometry": {
				"type": "Point",
				"coordinates": [
					121.202,
					24.2826
				]
			}
		},
		{
			"type": "Feature",
			"properties": {
				"name": "大甲溪",
				"wikiID": null,
				"alt": null,
				"city": "宜蘭縣",
				"midpointX": "121.202",
				"midpointY": "24.2826",
				"field_7": null,
				"Y+X": "24.2826,121.202"
			},
			"geometry": {
				"type": "Point",
				"coordinates": [
					121.202,
					24.2826
				]
			}
		},
		{
			"type": "Feature",
			"properties": {
				"name": "大甲溪",
				"wikiID": "Q714246",
				"alt": null,
				"city": "臺中市",
				"midpointX": "120.551",
				"midpointY": "24.3292",
				"field_7": null,
				"Y+X": "24.3292,120.551"
			},
			"geometry": {
				"type": "Point",
				"coordinates": [
					120.551,
					24.3292
				]
			}
		},
		{
			"type": "Feature",
			"properties": {
				"name": "大甲溪口",
				"wikiID": null,
				"alt": null,
				"city": "臺中市",
				"midpointX": "120.556",
				"midpointY": "24.3344",
				"field_7": null,
				"Y+X": "24.3344,120.556"
			},
			"geometry": {
				"type": "Point",
				"coordinates": [
					120.556,
					24.3344
				]
			}
		},
		{
			"type": "Feature",
			"properties": {
				"name": "大目幹溪",
				"wikiID": null,
				"alt": null,
				"city": "臺南市",
				"midpointX": "120.341",
				"midpointY": "22.9971",
				"field_7": null,
				"Y+X": "22.9971,120.341"
			},
			"geometry": {
				"type": "Point",
				"coordinates": [
					120.341,
					22.9971
				]
			}
		},
		{
			"type": "Feature",
			"properties": {
				"name": "大石坑",
				"wikiID": null,
				"alt": null,
				"city": "南投縣",
				"midpointX": "120.86",
				"midpointY": "23.993",
				"field_7": null,
				"Y+X": "23.993,120.86"
			},
			"geometry": {
				"type": "Point",
				"coordinates": [
					120.86,
					23.993
				]
			}
		},
		{
			"type": "Feature",
			"properties": {
				"name": "大石板溪",
				"wikiID": null,
				"alt": null,
				"city": "屏東縣",
				"midpointX": "120.792",
				"midpointY": "22.0912",
				"field_7": null,
				"Y+X": "22.0912,120.792"
			},
			"geometry": {
				"type": "Point",
				"coordinates": [
					120.792,
					22.0912
				]
			}
		},
		{
			"type": "Feature",
			"properties": {
				"name": "大石股圳",
				"wikiID": null,
				"alt": null,
				"city": "南投縣",
				"midpointX": "120.855",
				"midpointY": "23.9968",
				"field_7": null,
				"Y+X": "23.9968,120.855"
			},
			"geometry": {
				"type": "Point",
				"coordinates": [
					120.855,
					23.9968
				]
			}
		},
		{
			"type": "Feature",
			"properties": {
				"name": "大光明圳",
				"wikiID": null,
				"alt": null,
				"city": "宜蘭縣",
				"midpointX": "121.716",
				"midpointY": "24.6513",
				"field_7": null,
				"Y+X": "24.6513,121.716"
			},
			"geometry": {
				"type": "Point",
				"coordinates": [
					121.716,
					24.6513
				]
			}
		},
		{
			"type": "Feature",
			"properties": {
				"name": "大宅坑",
				"wikiID": null,
				"alt": null,
				"city": "臺南市",
				"midpointX": "120.514",
				"midpointY": "23.1997",
				"field_7": null,
				"Y+X": "23.1997,120.514"
			},
			"geometry": {
				"type": "Point",
				"coordinates": [
					120.514,
					23.1997
				]
			}
		},
		{
			"type": "Feature",
			"properties": {
				"name": "大安圳幹線",
				"wikiID": null,
				"alt": null,
				"city": "新北市",
				"midpointX": "121.416",
				"midpointY": "24.9524",
				"field_7": null,
				"Y+X": "24.9524,121.416"
			},
			"geometry": {
				"type": "Point",
				"coordinates": [
					121.416,
					24.9524
				]
			}
		},
		{
			"type": "Feature",
			"properties": {
				"name": "大安圳幹線媽祖田支線",
				"wikiID": null,
				"alt": null,
				"city": "新北市",
				"midpointX": "121.432",
				"midpointY": "24.9427",
				"field_7": null,
				"Y+X": "24.9427,121.432"
			},
			"geometry": {
				"type": "Point",
				"coordinates": [
					121.432,
					24.9427
				]
			}
		},
		{
			"type": "Feature",
			"properties": {
				"name": "大安溪",
				"wikiID": "Q32713410",
				"alt": null,
				"city": "苗栗縣",
				"midpointX": "120.722",
				"midpointY": "24.3565",
				"field_7": null,
				"Y+X": "24.3565,120.722"
			},
			"geometry": {
				"type": "Point",
				"coordinates": [
					120.722,
					24.3565
				]
			}
		},
		{
			"type": "Feature",
			"properties": {
				"name": "大安溪",
				"wikiID": null,
				"alt": null,
				"city": "苗栗縣",
				"midpointX": "120.967",
				"midpointY": "24.3707",
				"field_7": null,
				"Y+X": "24.3707,120.967"
			},
			"geometry": {
				"type": "Point",
				"coordinates": [
					120.967,
					24.3707
				]
			}
		},
		{
			"type": "Feature",
			"properties": {
				"name": "大安溪",
				"wikiID": null,
				"alt": null,
				"city": "臺中市",
				"midpointX": "120.967",
				"midpointY": "24.3707",
				"field_7": null,
				"Y+X": "24.3707,120.967"
			},
			"geometry": {
				"type": "Point",
				"coordinates": [
					120.967,
					24.3707
				]
			}
		},
		{
			"type": "Feature",
			"properties": {
				"name": "大安溪",
				"wikiID": "Q32713410",
				"alt": null,
				"city": "臺中市",
				"midpointX": "120.61",
				"midpointY": "24.3986",
				"field_7": null,
				"Y+X": "24.3986,120.61"
			},
			"geometry": {
				"type": "Point",
				"coordinates": [
					120.61,
					24.3986
				]
			}
		},
		{
			"type": "Feature",
			"properties": {
				"name": "大庄排水",
				"wikiID": null,
				"alt": null,
				"city": "南投縣",
				"midpointX": "120.651",
				"midpointY": "23.8798",
				"field_7": null,
				"Y+X": "23.8798,120.651"
			},
			"geometry": {
				"type": "Point",
				"coordinates": [
					120.651,
					23.8798
				]
			}
		},
		{
			"type": "Feature",
			"properties": {
				"name": "大竹圍一圳",
				"wikiID": null,
				"alt": null,
				"city": "新北市",
				"midpointX": "121.461",
				"midpointY": "25.178",
				"field_7": null,
				"Y+X": "25.178,121.461"
			},
			"geometry": {
				"type": "Point",
				"coordinates": [
					121.461,
					25.178
				]
			}
		},
		{
			"type": "Feature",
			"properties": {
				"name": "大竹溪",
				"wikiID": null,
				"alt": null,
				"city": "嘉義縣",
				"midpointX": "120.822",
				"midpointY": "22.4517",
				"field_7": null,
				"Y+X": "22.4517,120.822"
			},
			"geometry": {
				"type": "Point",
				"coordinates": [
					120.822,
					22.4517
				]
			}
		},
		{
			"type": "Feature",
			"properties": {
				"name": "大竹溪",
				"wikiID": null,
				"alt": null,
				"city": "臺東縣",
				"midpointX": "120.822",
				"midpointY": "22.4517",
				"field_7": null,
				"Y+X": "22.4517,120.822"
			},
			"geometry": {
				"type": "Point",
				"coordinates": [
					120.822,
					22.4517
				]
			}
		},
		{
			"type": "Feature",
			"properties": {
				"name": "大竹溪",
				"wikiID": "Q10937222",
				"alt": null,
				"city": "臺東縣",
				"midpointX": "120.884",
				"midpointY": "22.4547",
				"field_7": null,
				"Y+X": "22.4547,120.884"
			},
			"geometry": {
				"type": "Point",
				"coordinates": [
					120.884,
					22.4547
				]
			}
		},
		{
			"type": "Feature",
			"properties": {
				"name": "大冷坑",
				"wikiID": null,
				"alt": null,
				"city": "南投縣",
				"midpointX": "120.895",
				"midpointY": "23.9871",
				"field_7": null,
				"Y+X": "23.9871,120.895"
			},
			"geometry": {
				"type": "Point",
				"coordinates": [
					120.895,
					23.9871
				]
			}
		},
		{
			"type": "Feature",
			"properties": {
				"name": "大坑",
				"wikiID": null,
				"alt": null,
				"city": "苗栗縣",
				"midpointX": "120.857",
				"midpointY": "24.4936",
				"field_7": null,
				"Y+X": "24.4936,120.857"
			},
			"geometry": {
				"type": "Point",
				"coordinates": [
					120.857,
					24.4936
				]
			}
		},
		{
			"type": "Feature",
			"properties": {
				"name": "大坑",
				"wikiID": null,
				"alt": null,
				"city": "南投縣",
				"midpointX": "120.857",
				"midpointY": "24.4936",
				"field_7": null,
				"Y+X": "24.4936,120.857"
			},
			"geometry": {
				"type": "Point",
				"coordinates": [
					120.857,
					24.4936
				]
			}
		},
		{
			"type": "Feature",
			"properties": {
				"name": "大坑缺溪",
				"wikiID": null,
				"alt": null,
				"city": "桃園市",
				"midpointX": "121.199",
				"midpointY": "24.8767",
				"field_7": null,
				"Y+X": "24.8767,121.199"
			},
			"geometry": {
				"type": "Point",
				"coordinates": [
					121.199,
					24.8767
				]
			}
		},
		{
			"type": "Feature",
			"properties": {
				"name": "大坑溝",
				"wikiID": null,
				"alt": null,
				"city": "高雄市",
				"midpointX": "120.417",
				"midpointY": "22.7459",
				"field_7": null,
				"Y+X": "22.7459,120.417"
			},
			"geometry": {
				"type": "Point",
				"coordinates": [
					120.417,
					22.7459
				]
			}
		},
		{
			"type": "Feature",
			"properties": {
				"name": "大坑溪",
				"wikiID": null,
				"alt": null,
				"city": "宜蘭縣",
				"midpointX": "121.665",
				"midpointY": "24.6457",
				"field_7": null,
				"Y+X": "24.6457,121.665"
			},
			"geometry": {
				"type": "Point",
				"coordinates": [
					121.665,
					24.6457
				]
			}
		},
		{
			"type": "Feature",
			"properties": {
				"name": "大坑溪",
				"wikiID": null,
				"alt": null,
				"city": "南投縣",
				"midpointX": "121.665",
				"midpointY": "24.6457",
				"field_7": null,
				"Y+X": "24.6457,121.665"
			},
			"geometry": {
				"type": "Point",
				"coordinates": [
					121.665,
					24.6457
				]
			}
		},
		{
			"type": "Feature",
			"properties": {
				"name": "大坑溪",
				"wikiID": null,
				"alt": null,
				"city": "花蓮縣",
				"midpointX": "121.665",
				"midpointY": "24.6457",
				"field_7": null,
				"Y+X": "24.6457,121.665"
			},
			"geometry": {
				"type": "Point",
				"coordinates": [
					121.665,
					24.6457
				]
			}
		},
		{
			"type": "Feature",
			"properties": {
				"name": "大坑溪",
				"wikiID": null,
				"alt": null,
				"city": "苗栗縣",
				"midpointX": "121.665",
				"midpointY": "24.6457",
				"field_7": null,
				"Y+X": "24.6457,121.665"
			},
			"geometry": {
				"type": "Point",
				"coordinates": [
					121.665,
					24.6457
				]
			}
		},
		{
			"type": "Feature",
			"properties": {
				"name": "大坑溪",
				"wikiID": null,
				"alt": null,
				"city": "高雄市",
				"midpointX": "121.665",
				"midpointY": "24.6457",
				"field_7": null,
				"Y+X": "24.6457,121.665"
			},
			"geometry": {
				"type": "Point",
				"coordinates": [
					121.665,
					24.6457
				]
			}
		},
		{
			"type": "Feature",
			"properties": {
				"name": "大坑溪",
				"wikiID": null,
				"alt": null,
				"city": "臺中市",
				"midpointX": "121.665",
				"midpointY": "24.6457",
				"field_7": null,
				"Y+X": "24.6457,121.665"
			},
			"geometry": {
				"type": "Point",
				"coordinates": [
					121.665,
					24.6457
				]
			}
		},
		{
			"type": "Feature",
			"properties": {
				"name": "大坑溪",
				"wikiID": null,
				"alt": null,
				"city": "新北市",
				"midpointX": "121.665",
				"midpointY": "24.6457",
				"field_7": null,
				"Y+X": "24.6457,121.665"
			},
			"geometry": {
				"type": "Point",
				"coordinates": [
					121.665,
					24.6457
				]
			}
		},
		{
			"type": "Feature",
			"properties": {
				"name": "大坑溪",
				"wikiID": null,
				"alt": null,
				"city": "桃園市",
				"midpointX": "121.665",
				"midpointY": "24.6457",
				"field_7": null,
				"Y+X": "24.6457,121.665"
			},
			"geometry": {
				"type": "Point",
				"coordinates": [
					121.665,
					24.6457
				]
			}
		},
		{
			"type": "Feature",
			"properties": {
				"name": "大坑溪",
				"wikiID": null,
				"alt": null,
				"city": "臺北市",
				"midpointX": "121.665",
				"midpointY": "24.6457",
				"field_7": null,
				"Y+X": "24.6457,121.665"
			},
			"geometry": {
				"type": "Point",
				"coordinates": [
					121.665,
					24.6457
				]
			}
		},
		{
			"type": "Feature",
			"properties": {
				"name": "大坑溪",
				"wikiID": "Q10934411",
				"alt": "舊莊溪,東勢坑溪",
				"city": "新北市",
				"midpointX": null,
				"midpointY": null,
				"field_7": null,
				"Y+X": ","
			},
			"geometry": null
		},
		{
			"type": "Feature",
			"properties": {
				"name": "大坑溪",
				"wikiID": "Q10934412",
				"alt": null,
				"city": "臺中市",
				"midpointX": null,
				"midpointY": null,
				"field_7": null,
				"Y+X": ","
			},
			"geometry": null
		},
		{
			"type": "Feature",
			"properties": {
				"name": "大坑溪",
				"wikiID": "Q32716656",
				"alt": null,
				"city": "宜蘭縣",
				"midpointX": null,
				"midpointY": null,
				"field_7": null,
				"Y+X": ","
			},
			"geometry": null
		},
		{
			"type": "Feature",
			"properties": {
				"name": "大沙溪",
				"wikiID": null,
				"alt": null,
				"city": "花蓮縣",
				"midpointX": "121.497",
				"midpointY": "24.2068",
				"field_7": null,
				"Y+X": "24.2068,121.497"
			},
			"geometry": {
				"type": "Point",
				"coordinates": [
					121.497,
					24.2068
				]
			}
		},
		{
			"type": "Feature",
			"properties": {
				"name": "大肚溪",
				"wikiID": null,
				"alt": null,
				"city": "新竹縣",
				"midpointX": "121.111",
				"midpointY": "24.7378",
				"field_7": null,
				"Y+X": "24.7378,121.111"
			},
			"geometry": {
				"type": "Point",
				"coordinates": [
					121.111,
					24.7378
				]
			}
		},
		{
			"type": "Feature",
			"properties": {
				"name": "大肚溪大排",
				"wikiID": null,
				"alt": null,
				"city": "苗栗縣",
				"midpointX": "120.815",
				"midpointY": "24.636",
				"field_7": null,
				"Y+X": "24.636,120.815"
			},
			"geometry": {
				"type": "Point",
				"coordinates": [
					120.815,
					24.636
				]
			}
		},
		{
			"type": "Feature",
			"properties": {
				"name": "大肚滑溪",
				"wikiID": "#N/A",
				"alt": null,
				"city": "花蓮縣",
				"midpointX": null,
				"midpointY": null,
				"field_7": null,
				"Y+X": ","
			},
			"geometry": null
		},
		{
			"type": "Feature",
			"properties": {
				"name": "大里溪",
				"wikiID": null,
				"alt": null,
				"city": "臺中市",
				"midpointX": "120.702",
				"midpointY": "24.1167",
				"field_7": null,
				"Y+X": "24.1167,120.702"
			},
			"geometry": {
				"type": "Point",
				"coordinates": [
					120.702,
					24.1167
				]
			}
		},
		{
			"type": "Feature",
			"properties": {
				"name": "大里溪",
				"wikiID": "Q10938249",
				"alt": null,
				"city": "臺中市",
				"midpointX": null,
				"midpointY": null,
				"field_7": null,
				"Y+X": ","
			},
			"geometry": null
		},
		{
			"type": "Feature",
			"properties": {
				"name": "大和溪",
				"wikiID": null,
				"alt": null,
				"city": "花蓮縣",
				"midpointX": "121.427",
				"midpointY": "23.5982",
				"field_7": null,
				"Y+X": "23.5982,121.427"
			},
			"geometry": {
				"type": "Point",
				"coordinates": [
					121.427,
					23.5982
				]
			}
		},
		{
			"type": "Feature",
			"properties": {
				"name": "大和溪",
				"wikiID": "Q32715823",
				"alt": null,
				"city": "花蓮縣",
				"midpointX": "121.407",
				"midpointY": "23.6166",
				"field_7": null,
				"Y+X": "23.6166,121.407"
			},
			"geometry": {
				"type": "Point",
				"coordinates": [
					121.407,
					23.6166
				]
			}
		},
		{
			"type": "Feature",
			"properties": {
				"name": "大坡池",
				"wikiID": null,
				"alt": null,
				"city": "臺東縣",
				"midpointX": "121.224",
				"midpointY": "23.1176",
				"field_7": null,
				"Y+X": "23.1176,121.224"
			},
			"geometry": {
				"type": "Point",
				"coordinates": [
					121.224,
					23.1176
				]
			}
		},
		{
			"type": "Feature",
			"properties": {
				"name": "大坡溪",
				"wikiID": null,
				"alt": null,
				"city": "臺東縣",
				"midpointX": "121.228",
				"midpointY": "23.1298",
				"field_7": null,
				"Y+X": "23.1298,121.228"
			},
			"geometry": {
				"type": "Point",
				"coordinates": [
					121.228,
					23.1298
				]
			}
		},
		{
			"type": "Feature",
			"properties": {
				"name": "大坡溪",
				"wikiID": null,
				"alt": null,
				"city": "花蓮縣",
				"midpointX": "121.228",
				"midpointY": "23.1298",
				"field_7": null,
				"Y+X": "23.1298,121.228"
			},
			"geometry": {
				"type": "Point",
				"coordinates": [
					121.228,
					23.1298
				]
			}
		},
		{
			"type": "Feature",
			"properties": {
				"name": "大坡溪",
				"wikiID": null,
				"alt": null,
				"city": "桃園市",
				"midpointX": "121.228",
				"midpointY": "23.1298",
				"field_7": null,
				"Y+X": "23.1298,121.228"
			},
			"geometry": {
				"type": "Point",
				"coordinates": [
					121.228,
					23.1298
				]
			}
		},
		{
			"type": "Feature",
			"properties": {
				"name": "大坡溪",
				"wikiID": "#N/A",
				"alt": null,
				"city": "臺東縣",
				"midpointX": "121.231",
				"midpointY": "23.1394",
				"field_7": null,
				"Y+X": "23.1394,121.231"
			},
			"geometry": {
				"type": "Point",
				"coordinates": [
					121.231,
					23.1394
				]
			}
		},
		{
			"type": "Feature",
			"properties": {
				"name": "大坡溪",
				"wikiID": "#N/A",
				"alt": null,
				"city": "花蓮縣",
				"midpointX": "121.231",
				"midpointY": "23.1394",
				"field_7": null,
				"Y+X": "23.1394,121.231"
			},
			"geometry": {
				"type": "Point",
				"coordinates": [
					121.231,
					23.1394
				]
			}
		},
		{
			"type": "Feature",
			"properties": {
				"name": "大坡腳埤",
				"wikiID": null,
				"alt": null,
				"city": "桃園市",
				"midpointX": "121.101",
				"midpointY": "25.0294",
				"field_7": null,
				"Y+X": "25.0294,121.101"
			},
			"geometry": {
				"type": "Point",
				"coordinates": [
					121.101,
					25.0294
				]
			}
		},
		{
			"type": "Feature",
			"properties": {
				"name": "大坪圳",
				"wikiID": null,
				"alt": null,
				"city": "新北市",
				"midpointX": "121.634",
				"midpointY": "25.1671",
				"field_7": null,
				"Y+X": "25.1671,121.634"
			},
			"geometry": {
				"type": "Point",
				"coordinates": [
					121.634,
					25.1671
				]
			}
		},
		{
			"type": "Feature",
			"properties": {
				"name": "大坪坑",
				"wikiID": null,
				"alt": null,
				"city": "南投縣",
				"midpointX": "120.894",
				"midpointY": "24.0927",
				"field_7": null,
				"Y+X": "24.0927,120.894"
			},
			"geometry": {
				"type": "Point",
				"coordinates": [
					120.894,
					24.0927
				]
			}
		},
		{
			"type": "Feature",
			"properties": {
				"name": "大坪林西幹線",
				"wikiID": null,
				"alt": null,
				"city": "新北市",
				"midpointX": "121.54",
				"midpointY": "24.9652",
				"field_7": null,
				"Y+X": "24.9652,121.54"
			},
			"geometry": {
				"type": "Point",
				"coordinates": [
					121.54,
					24.9652
				]
			}
		},
		{
			"type": "Feature",
			"properties": {
				"name": "大坪林東幹線",
				"wikiID": null,
				"alt": null,
				"city": "新北市",
				"midpointX": "121.546",
				"midpointY": "24.9686",
				"field_7": null,
				"Y+X": "24.9686,121.546"
			},
			"geometry": {
				"type": "Point",
				"coordinates": [
					121.546,
					24.9686
				]
			}
		},
		{
			"type": "Feature",
			"properties": {
				"name": "大坪溪",
				"wikiID": null,
				"alt": null,
				"city": "新竹縣",
				"midpointX": "121.065",
				"midpointY": "24.6402",
				"field_7": null,
				"Y+X": "24.6402,121.065"
			},
			"geometry": {
				"type": "Point",
				"coordinates": [
					121.065,
					24.6402
				]
			}
		},
		{
			"type": "Feature",
			"properties": {
				"name": "大坪溪",
				"wikiID": null,
				"alt": null,
				"city": "高雄市",
				"midpointX": "121.065",
				"midpointY": "24.6402",
				"field_7": null,
				"Y+X": "24.6402,121.065"
			},
			"geometry": {
				"type": "Point",
				"coordinates": [
					121.065,
					24.6402
				]
			}
		},
		{
			"type": "Feature",
			"properties": {
				"name": "大坪溪",
				"wikiID": null,
				"alt": null,
				"city": "臺南市",
				"midpointX": "121.065",
				"midpointY": "24.6402",
				"field_7": null,
				"Y+X": "24.6402,121.065"
			},
			"geometry": {
				"type": "Point",
				"coordinates": [
					121.065,
					24.6402
				]
			}
		},
		{
			"type": "Feature",
			"properties": {
				"name": "大坪溪",
				"wikiID": "Q32721445",
				"alt": null,
				"city": "新竹縣",
				"midpointX": "121.056",
				"midpointY": "24.6806",
				"field_7": null,
				"Y+X": "24.6806,121.056"
			},
			"geometry": {
				"type": "Point",
				"coordinates": [
					121.056,
					24.6806
				]
			}
		},
		{
			"type": "Feature",
			"properties": {
				"name": "大東坑",
				"wikiID": null,
				"alt": null,
				"city": "新竹縣",
				"midpointX": "121.112",
				"midpointY": "24.8172",
				"field_7": null,
				"Y+X": "24.8172,121.112"
			},
			"geometry": {
				"type": "Point",
				"coordinates": [
					121.112,
					24.8172
				]
			}
		},
		{
			"type": "Feature",
			"properties": {
				"name": "大東河",
				"wikiID": "Q32714684",
				"alt": "東河溪",
				"city": "苗栗縣",
				"midpointX": "121.047",
				"midpointY": "24.5986",
				"field_7": null,
				"Y+X": "24.5986,121.047"
			},
			"geometry": {
				"type": "Point",
				"coordinates": [
					121.047,
					24.5986
				]
			}
		},
		{
			"type": "Feature",
			"properties": {
				"name": "大東河",
				"wikiID": null,
				"alt": null,
				"city": "苗栗縣",
				"midpointX": "121.039",
				"midpointY": "24.6176",
				"field_7": null,
				"Y+X": "24.6176,121.039"
			},
			"geometry": {
				"type": "Point",
				"coordinates": [
					121.039,
					24.6176
				]
			}
		},
		{
			"type": "Feature",
			"properties": {
				"name": "大東勢溪",
				"wikiID": null,
				"alt": null,
				"city": "苗栗縣",
				"midpointX": "120.925",
				"midpointY": "24.5282",
				"field_7": null,
				"Y+X": "24.5282,120.925"
			},
			"geometry": {
				"type": "Point",
				"coordinates": [
					120.925,
					24.5282
				]
			}
		},
		{
			"type": "Feature",
			"properties": {
				"name": "大林圳",
				"wikiID": null,
				"alt": null,
				"city": "南投縣",
				"midpointX": "120.952",
				"midpointY": "23.8832",
				"field_7": null,
				"Y+X": "23.8832,120.952"
			},
			"geometry": {
				"type": "Point",
				"coordinates": [
					120.952,
					23.8832
				]
			}
		},
		{
			"type": "Feature",
			"properties": {
				"name": "大武崙溪",
				"wikiID": null,
				"alt": null,
				"city": "基隆市",
				"midpointX": "121.722",
				"midpointY": "25.1163",
				"field_7": null,
				"Y+X": "25.1163,121.722"
			},
			"geometry": {
				"type": "Point",
				"coordinates": [
					121.722,
					25.1163
				]
			}
		},
		{
			"type": "Feature",
			"properties": {
				"name": "大武崙溪",
				"wikiID": "Q17023655",
				"alt": null,
				"city": "基隆市",
				"midpointX": "121.712",
				"midpointY": "25.1387",
				"field_7": null,
				"Y+X": "25.1387,121.712"
			},
			"geometry": {
				"type": "Point",
				"coordinates": [
					121.712,
					25.1387
				]
			}
		},
		{
			"type": "Feature",
			"properties": {
				"name": "大武溪",
				"wikiID": "Q10936117",
				"alt": "茶茶牙賴溪",
				"city": "臺東縣",
				"midpointX": "120.862",
				"midpointY": "22.3648",
				"field_7": null,
				"Y+X": "22.3648,120.862"
			},
			"geometry": {
				"type": "Point",
				"coordinates": [
					120.862,
					22.3648
				]
			}
		},
		{
			"type": "Feature",
			"properties": {
				"name": "大武溪",
				"wikiID": null,
				"alt": "茶茶牙賴溪",
				"city": "臺東縣",
				"midpointX": "120.847",
				"midpointY": "22.3687",
				"field_7": null,
				"Y+X": "22.3687,120.847"
			},
			"geometry": {
				"type": "Point",
				"coordinates": [
					120.847,
					22.3687
				]
			}
		},
		{
			"type": "Feature",
			"properties": {
				"name": "大武溪",
				"wikiID": null,
				"alt": null,
				"city": "臺東縣",
				"midpointX": null,
				"midpointY": null,
				"field_7": null,
				"Y+X": ","
			},
			"geometry": null
		},
		{
			"type": "Feature",
			"properties": {
				"name": "大社溪",
				"wikiID": null,
				"alt": null,
				"city": "屏東縣",
				"midpointX": "120.708",
				"midpointY": "22.8697",
				"field_7": null,
				"Y+X": "22.8697,120.708"
			},
			"geometry": {
				"type": "Point",
				"coordinates": [
					120.708,
					22.8697
				]
			}
		},
		{
			"type": "Feature",
			"properties": {
				"name": "大金面第一湧泉圳",
				"wikiID": null,
				"alt": null,
				"city": "宜蘭縣",
				"midpointX": "121.803",
				"midpointY": "24.8499",
				"field_7": null,
				"Y+X": "24.8499,121.803"
			},
			"geometry": {
				"type": "Point",
				"coordinates": [
					121.803,
					24.8499
				]
			}
		},
		{
			"type": "Feature",
			"properties": {
				"name": "大金面第二湧泉圳",
				"wikiID": null,
				"alt": null,
				"city": "宜蘭縣",
				"midpointX": "121.805",
				"midpointY": "24.8318",
				"field_7": null,
				"Y+X": "24.8318,121.805"
			},
			"geometry": {
				"type": "Point",
				"coordinates": [
					121.805,
					24.8318
				]
			}
		},
		{
			"type": "Feature",
			"properties": {
				"name": "大金面湧泉圳",
				"wikiID": null,
				"alt": null,
				"city": "宜蘭縣",
				"midpointX": "121.799",
				"midpointY": "24.8484",
				"field_7": null,
				"Y+X": "24.8484,121.799"
			},
			"geometry": {
				"type": "Point",
				"coordinates": [
					121.799,
					24.8484
				]
			}
		},
		{
			"type": "Feature",
			"properties": {
				"name": "大南坑",
				"wikiID": null,
				"alt": null,
				"city": "新竹縣",
				"midpointX": "120.881",
				"midpointY": "24.2186",
				"field_7": null,
				"Y+X": "24.2186,120.881"
			},
			"geometry": {
				"type": "Point",
				"coordinates": [
					120.881,
					24.2186
				]
			}
		},
		{
			"type": "Feature",
			"properties": {
				"name": "大南坑",
				"wikiID": null,
				"alt": null,
				"city": "臺中市",
				"midpointX": "120.881",
				"midpointY": "24.2186",
				"field_7": null,
				"Y+X": "24.2186,120.881"
			},
			"geometry": {
				"type": "Point",
				"coordinates": [
					120.881,
					24.2186
				]
			}
		},
		{
			"type": "Feature",
			"properties": {
				"name": "大南河",
				"wikiID": null,
				"alt": null,
				"city": "苗栗縣",
				"midpointX": "120.999",
				"midpointY": "24.523",
				"field_7": null,
				"Y+X": "24.523,120.999"
			},
			"geometry": {
				"type": "Point",
				"coordinates": [
					120.999,
					24.523
				]
			}
		},
		{
			"type": "Feature",
			"properties": {
				"name": "大南埔圳",
				"wikiID": null,
				"alt": null,
				"city": "苗栗縣",
				"midpointX": "120.947",
				"midpointY": "24.6421",
				"field_7": null,
				"Y+X": "24.6421,120.947"
			},
			"geometry": {
				"type": "Point",
				"coordinates": [
					120.947,
					24.6421
				]
			}
		},
		{
			"type": "Feature",
			"properties": {
				"name": "大南溪",
				"wikiID": null,
				"alt": null,
				"city": "臺東縣",
				"midpointX": "121.022",
				"midpointY": "22.7547",
				"field_7": null,
				"Y+X": "22.7547,121.022"
			},
			"geometry": {
				"type": "Point",
				"coordinates": [
					121.022,
					22.7547
				]
			}
		},
		{
			"type": "Feature",
			"properties": {
				"name": "大南澳圳第一幹線",
				"wikiID": null,
				"alt": null,
				"city": "宜蘭縣",
				"midpointX": "121.814",
				"midpointY": "24.4606",
				"field_7": null,
				"Y+X": "24.4606,121.814"
			},
			"geometry": {
				"type": "Point",
				"coordinates": [
					121.814,
					24.4606
				]
			}
		},
		{
			"type": "Feature",
			"properties": {
				"name": "大後溪",
				"wikiID": null,
				"alt": "托阿沃溪",
				"city": null,
				"midpointX": "120.73",
				"midpointY": "22.5627",
				"field_7": null,
				"Y+X": "22.5627,120.73"
			},
			"geometry": {
				"type": "Point",
				"coordinates": [
					120.73,
					22.5627
				]
			}
		},
		{
			"type": "Feature",
			"properties": {
				"name": "大後溪",
				"wikiID": null,
				"alt": "托阿沃溪",
				"city": "屏東縣",
				"midpointX": "120.73",
				"midpointY": "22.5627",
				"field_7": null,
				"Y+X": "22.5627,120.73"
			},
			"geometry": {
				"type": "Point",
				"coordinates": [
					120.73,
					22.5627
				]
			}
		},
		{
			"type": "Feature",
			"properties": {
				"name": "大流溪",
				"wikiID": null,
				"alt": null,
				"city": "屏東縣",
				"midpointX": "120.883",
				"midpointY": "22.157",
				"field_7": null,
				"Y+X": "22.157,120.883"
			},
			"geometry": {
				"type": "Point",
				"coordinates": [
					120.883,
					22.157
				]
			}
		},
		{
			"type": "Feature",
			"properties": {
				"name": "大茅埔圳",
				"wikiID": null,
				"alt": null,
				"city": "臺中市",
				"midpointX": "120.841",
				"midpointY": "24.19",
				"field_7": null,
				"Y+X": "24.19,120.841"
			},
			"geometry": {
				"type": "Point",
				"coordinates": [
					120.841,
					24.19
				]
			}
		},
		{
			"type": "Feature",
			"properties": {
				"name": "大俱來一號圳",
				"wikiID": null,
				"alt": null,
				"city": "臺東縣",
				"midpointX": "121.451",
				"midpointY": "23.375",
				"field_7": null,
				"Y+X": "23.375,121.451"
			},
			"geometry": {
				"type": "Point",
				"coordinates": [
					121.451,
					23.375
				]
			}
		},
		{
			"type": "Feature",
			"properties": {
				"name": "大埔坑",
				"wikiID": null,
				"alt": null,
				"city": "臺南市",
				"midpointX": "120.4",
				"midpointY": "23.2017",
				"field_7": null,
				"Y+X": "23.2017,120.4"
			},
			"geometry": {
				"type": "Point",
				"coordinates": [
					120.4,
					23.2017
				]
			}
		},
		{
			"type": "Feature",
			"properties": {
				"name": "大埔美溪",
				"wikiID": null,
				"alt": null,
				"city": "嘉義縣",
				"midpointX": "120.514",
				"midpointY": "23.5833",
				"field_7": null,
				"Y+X": "23.5833,120.514"
			},
			"geometry": {
				"type": "Point",
				"coordinates": [
					120.514,
					23.5833
				]
			}
		},
		{
			"type": "Feature",
			"properties": {
				"name": "大埔埤",
				"wikiID": null,
				"alt": null,
				"city": "桃園市",
				"midpointX": "121.19",
				"midpointY": "25.0236",
				"field_7": null,
				"Y+X": "25.0236,121.19"
			},
			"geometry": {
				"type": "Point",
				"coordinates": [
					121.19,
					25.0236
				]
			}
		},